cd_code,cds_code,county,district,doc,doc_type,status_type,street,city,zip,state,mail_street,mail_city,mail_zip,mail_state,phone,extension,fax_number,admin_first_name,admin_last_name,latitude,longitude,last_update,county_dir,district_dir,source
0110017,01100170000000,Alameda,Alameda County Office of Education,00,County Office of Education (COE),Active,313 West Winton Avenue,Hayward,94544-1136,CA,313 West Winton Avenue,Hayward,94544-1136,CA,(510) 887-0152,,,Alysse,Castro,37.658212,-122.09713,03/08/2023,Alameda,01100170000000 - Alameda County Office of Education,cde_public_districts
0131609,01316090000000,Alameda,California School for the Blind (State Special Schl),31,State Special Schools,Active,500 Walnut Avenue,Fremont,94536-4365,CA,500 Walnut Avenue,Fremont,94536-4365,CA,(510) 794-3800,,(510) 794-3813,Gina,Ouellette,37.562576,-121.96563,03/08/2024,Alameda,01316090000000 - California School for the Blind (State Special Schl),cde_public_districts
0131617,01316170000000,Alameda,California School for the Deaf-Fremont (State Special Schl),31,State Special Schools,Active,39350 Gallaudet Drive,Fremont,94538-2308,CA,39350 Gallaudet Drive,Fremont,94538-2308,CA,(510) 794-3666,,(510) 794-3797,Amy,Novotny,37.558956,-121.96551,03/01/2024,Alameda,01316170000000 - California School for the Deaf-Fremont (State Special Schl),cde_public_districts
0161119,01611190000000,Alameda,Alameda Unified,54,Unified School District,Active,2060 Challenger Dr,Alameda,94501-1037,CA,2060 Challenger Dr,Alameda,94501-1037,CA,(510) 337-7000,,,Pasquale,Scuderi,37.782147,-122.27009,03/23/2022,Alameda,01611190000000 - Alameda Unified,cde_public_districts
0161127,01611270000000,Alameda,Albany City Unified,54,Unified School District,Active,1216 Solano Avenue,Albany,94706-1725,CA,1216 Solano Avenue,Albany,94706-1725,CA,(510) 558-3750,,(510) 559-6560,Sara,Stone,37.890302,-122.29575,12/09/2024,Alameda,01611270000000 - Albany City Unified,cde_public_districts
0161143,01611430000000,Alameda,Berkeley Unified,54,Unified School District,Active,2020 Bonar Street,Berkeley,94702-1793,CA,2020 Bonar Street,Berkeley,94702-1793,CA,(510) 644-6150,,,Enikia,Ford Morthel,37.869454,-122.28747,07/18/2023,Alameda,01611430000000 - Berkeley Unified,cde_public_districts
0161150,01611500000000,Alameda,Castro Valley Unified,54,Unified School District,Active,4400 Alma Avenue,Castro Valley,94546-0146,CA,PO Box 2146,Castro Valley,94546-0146,CA,(510) 537-3000,1240,,Nia,Rashidchi,37.707693,-122.07038,07/14/2025,Alameda,01611500000000 - Castro Valley Unified,cde_public_districts
0161168,01611680000000,Alameda,Emery Unified,54,Unified School District,Active,4727 San Pablo Avenue,Emeryville,94608-3035,CA,4727 San Pablo Avenue,Emeryville,94608-3035,CA,(510) 601-4906,,(510) 601-4906,Quiauna,Scott,37.836319,-122.28185,03/23/2022,Alameda,01611680000000 - Emery Unified,cde_public_districts
0161176,01611760000000,Alameda,Fremont Unified,54,Unified School District,Active,4210 Technology Drive,Fremont,94538-6337,CA,PO Box 5008,Fremont,94537-5008,CA,(510) 657-2350,,(510) 659-2597,Zachary,Larsen,37.507800,-121.95443,02/27/2025,Alameda,01611760000000 - Fremont Unified,cde_public_districts
0161192,01611920000000,Alameda,Hayward Unified,54,Unified School District,Active,24411 Amador Street,Hayward,94544-1301,CA,PO Box 5000,Hayward,94540-5000,CA,(510) 784-2600,,(510) 784-2641,Chien,Wu-Fernandez,37.656838,-122.09337,03/20/2025,Alameda,01611920000000 - Hayward Unified,cde_public_districts
0161200,01612000000000,Alameda,Livermore Valley Joint Unified,54,Unified School District,Active,685 East Jack London Boulevard,Livermore,94551-1899,CA,685 East Jack London Boulevard,Livermore,94551-1899,CA,(925) 606-3200,,(925) 606-3329,Michelle,Pechette,37.689031,-121.79177,02/20/2026,Alameda,01612000000000 - Livermore Valley Joint Unified,cde_public_districts
0161218,01612180000000,Alameda,Mountain House Elementary,52,Elementary School District,Active,3950 Mountain House Road,Byron,94514-1920,CA,3950 Mountain House Road,Byron,94514-1920,CA,(209) 835-2283,,,Tonya,Arledge,37.787242,-121.57729,11/29/2023,Alameda,01612180000000 - Mountain House Elementary,cde_public_districts
0161234,01612340000000,Alameda,Newark Unified,54,Unified School District,Active,5715 Musick Avenue,Newark,94560-0385,CA,5715 Musick Avenue,Newark,94560-0385,CA,(510) 818-4103,,(510) 794-2199,Tracey,Vackar,37.542383,-122.03158,09/04/2025,Alameda,01612340000000 - Newark Unified,cde_public_districts
0161242,01612420000000,Alameda,New Haven Unified,54,Unified School District,Active,34200 Alvarado-Niles Road,Union City,94587-4402,CA,34200 Alvarado-Niles Road,Union City,94587-4402,CA,(510) 471-1100,62622,(510) 475-1200,John,Thompson,37.588425,-122.02531,09/18/2025,Alameda,01612420000000 - New Haven Unified,cde_public_districts
0161259,01612590000000,Alameda,Oakland Unified,54,Unified School District,Active,1011 Union St,Oakland,94607-4099,CA,1011 Union St,Oakland,94607-4099,CA,(510) 879-8000,,,Denise,Saddler,37.807928,-122.28988,07/02/2025,Alameda,01612590000000 - Oakland Unified,cde_public_districts
0161275,01612750000000,Alameda,Piedmont City Unified,54,Unified School District,Active,760 Magnolia Avenue,Piedmont,94611-4047,CA,760 Magnolia Avenue,Piedmont,94611-4047,CA,(510) 594-2614,,,Jennifer,Hawn,37.823082,-122.23371,07/06/2023,Alameda,01612750000000 - Piedmont City Unified,cde_public_districts
0161291,01612910000000,Alameda,San Leandro Unified,54,Unified School District,Active,2600 Teagarden Street,San Leandro,94577-3767,CA,1145 Aladdin Avenue San Leandro,San Leandro,94577-3767,CA,(510) 667-3500,,(510) 667-6234,Mike,McLaughlin,37.708550,-122.15919,07/08/2025,Alameda,01612910000000 - San Leandro Unified,cde_public_districts
0161309,01613090000000,Alameda,San Lorenzo Unified,54,Unified School District,Active,15510 Usher Street,San Lorenzo,94580-1641,CA,15510 Usher Street,San Lorenzo,94580-1641,CA,(510) 317-4600,,,Daryl,Camp,37.689222,-122.12875,07/03/2019,Alameda,01613090000000 - San Lorenzo Unified,cde_public_districts
0174005,01740050000000,Alameda,Tri-Valley ROP,98,Regional Occupation Center/Program (ROC/P),Active,1040 Florence Road,Livermore,94550-5543,CA,1040 Florence Road,Livermore,94550-5543,CA,(925) 455-4800,,(925) 449-9126,Julie,Duncan,37.669154,-121.77428,01/30/2016,Alameda,01740050000000 - Tri-Valley ROP,cde_public_districts
0174013,01740130000000,Alameda,Eden Area ROP,98,Regional Occupation Center/Program (ROC/P),Active,26316 Hesperian Boulevard,Hayward,94545,CA,26316 Hesperian Boulevard,Hayward,94545,CA,(510) 293-2900,,,Blaine,Torpey,37.634543,-122.09874,08/27/2024,Alameda,01740130000000 - Eden Area ROP,cde_public_districts
0174021,01740210000000,Alameda,Mission Valley ROC/P,98,Regional Occupation Center/Program (ROC/P),Active,5019 Stevenson Boulevard,Fremont,94538,CA,5019 Stevenson Boulevard,Fremont,94538,CA,(510) 657-1865,,(510) 438-0378,Thomas,Hanson,37.528188,-121.98399,05/27/2016,Alameda,01740210000000 - Mission Valley ROC P,cde_public_districts
0175093,01750930000000,Alameda,Dublin Unified,54,Unified School District,Active,7471 Larkdale Avenue,Dublin,94568-1500,CA,7471 Larkdale Avenue,Dublin,94568-1500,CA,(925) 828-2551,,(925) 829-6532,Chris D.,Funk,37.716285,-121.93066,08/30/2021,Alameda,01750930000000 - Dublin Unified,cde_public_districts
0175101,01751010000000,Alameda,Pleasanton Unified,54,Unified School District,Active,5758 W Las Positas Boulevard,Pleasanton,94588-4083,CA,5758 W Las Positas Boulevard,Pleasanton,94588-4083,CA,(925) 462-5500,,,Maurice,Ghysels,37.685125,-121.89264,07/01/2024,Alameda,01751010000000 - Pleasanton Unified,cde_public_districts
0175119,01751190000000,Alameda,Sunol Glen Unified,54,Unified School District,Active,11601 Main Street,Sunol,94586-9519,CA,11601 Main Street,Sunol,94586-9519,CA,(925) 862-2026,,(925) 862-0127,Shay,Galletti,37.592963,-121.88482,07/01/2024,Alameda,01751190000000 - Sunol Glen Unified,cde_public_districts
0177180,01771800000000,Alameda,SBE - Latitude 37.8 High,02,State Board of Education,Active,1045 Derby Avenue,Oakland,94601-2212,CA,"333 Hegenberger Road, Suite 705",Oakland,94621,CA,(510) 568-7936,,,Larissa,Adam,37.777000,-122.22944,11/01/2023,Alameda,01771800000000 - SBE - Latitude 37.8 High,cde_public_districts
0210025,02100250000000,Alpine,Alpine County Office of Education,00,County Office of Education (COE),Active,43 Hawkside Drive,Markleeville,96120-9522,CA,43 Hawkside Drive,Markleeville,96120-9522,CA,(530) 694-2230,,(530) 694-2379,William,Roderick,38.766195,-119.80692,11/20/2025,Alpine,02100250000000 - Alpine County Office of Education,cde_public_districts
0261333,02613330000000,Alpine,Alpine County Unified,54,Unified School District,Active,43 Hawkside Drive,Markleeville,96120-9522,CA,43 Hawkside Drive,Markleeville,96120-9522,CA,(530) 694-2230,,(530) 694-2379,William,Roderick,38.766195,-119.80692,11/20/2025,Alpine,02613330000000 - Alpine County Unified,cde_public_districts
0310033,03100330000000,Amador,Amador County Office of Education,00,County Office of Education (COE),Active,217 Rex Avenue,Jackson,95642-2020,CA,217 Rex Avenue,Jackson,95642-2020,CA,(209) 257-5330,,(209) 257-5360,Jared,Critchfield,38.352665,-120.77703,10/09/2024,Amador,03100330000000 - Amador County Office of Education,cde_public_districts
0373981,03739810000000,Amador,Amador County Unified,54,Unified School District,Active,217 Rex Avenue,Jackson,95642-2020,CA,217 Rex Avenue,Jackson,95642-2020,CA,(209) 223-1750,,(209) 223-1733,Jared,Critchfield,38.352665,-120.77703,10/28/2024,Amador,03739810000000 - Amador County Unified,cde_public_districts
0374856,03748560000000,Amador,Amador County ROP,98,Regional Occupation Center/Program (ROC/P),Active,217 Rex Avenue,Jackson,95642,CA,217 Rex Avenue,Jackson,95642,CA,(209) 257-5353,,,Sean,Snider,38.353148,-120.77869,03/09/2020,Amador,03748560000000 - Amador County ROP,cde_public_districts
0410041,04100410000000,Butte,Butte County Office of Education,00,County Office of Education (COE),Active,1859 Bird Street,Oroville,95965-4854,CA,1859 Bird Street,Oroville,95965-4854,CA,(530) 532-5650,,(530) 532-5762,Mary,Sakuma,39.512653,-121.55663,03/23/2022,Butte,04100410000000 - Butte County Office of Education,cde_public_districts
0461382,04613820000000,Butte,Bangor Union Elementary,52,Elementary School District,Active,7549 Oro-Bangor Highway,Bangor,95914-0340,CA,PO Box 340,Bangor,95914-0340,CA,(530) 679-2434,201,(530) 679-1018,Scott,Otis,39.390904,-121.40740,07/08/2025,Butte,04613820000000 - Bangor Union Elementary,cde_public_districts
0461408,04614080000000,Butte,Biggs Unified,54,Unified School District,Active,300 B Street,Biggs,95917-9732,CA,300 B Street,Biggs,95917-9732,CA,(530) 868-1281,8100,,Doug,Kaelin,39.414988,-121.70380,09/13/2021,Butte,04614080000000 - Biggs Unified,cde_public_districts
0461424,04614240000000,Butte,Chico Unified,54,Unified School District,Active,1163 East Seventh Street,Chico,95928-5903,CA,1163 East Seventh Street,Chico,95928-5903,CA,(530) 891-3000,,(530) 891-3220,Gregory,Blake,39.733630,-121.82581,07/11/2025,Butte,04614240000000 - Chico Unified,cde_public_districts
0461432,04614320000000,Butte,Durham Unified,54,Unified School District,Active,9420 Putney Drive,Durham,95938-9426,CA,PO Box 300,Durham,95938-0300,CA,(530) 895-4675,5000,(530) 895-4692,John,Bohannon,39.646044,-121.80292,07/19/2023,Butte,04614320000000 - Durham Unified,cde_public_districts
0461457,04614570000000,Butte,Golden Feather Union Elementary,52,Elementary School District,Active,2771 Pentz Road,Oroville,95965-8033,CA,2771 Pentz Road,Oroville,95965-8033,CA,(530) 533-3467,,,Joshua,Peete,39.650509,-121.56284,02/27/2020,Butte,04614570000000 - Golden Feather Union Elementary,cde_public_districts
0461499,04614990000000,Butte,Manzanita Elementary,52,Elementary School District,Active,627 East Evans-Reimer Road,Gridley,95948-9736,CA,627 East Evans-Reimer Road,Gridley,95948-9736,CA,(530) 846-5594,,(530) 846-4084,Clint,Johnson,39.334408,-121.65863,08/18/2025,Butte,04614990000000 - Manzanita Elementary,cde_public_districts
0461507,04615070000000,Butte,Oroville City Elementary,52,Elementary School District,Active,2795 Yard Street,Oroville,95966-5113,CA,2795 Yard Street,Oroville,95966-5113,CA,(530) 532-3000,,(530) 532-3050,Spencer,Holtom,39.513224,-121.54591,03/23/2022,Butte,04615070000000 - Oroville City Elementary,cde_public_districts
0461515,04615150000000,Butte,Oroville Union High,56,High School District,Active,2211 Washington Avenue,Oroville,95966-5440,CA,2211 Washington Avenue,Oroville,95966-5440,CA,(530) 538-2300,,(530) 538-2308,Douglas,Williams,39.509368,-121.54714,07/11/2024,Butte,04615150000000 - Oroville Union High,cde_public_districts
0461523,04615230000000,Butte,Palermo Union Elementary,52,Elementary School District,Active,7390 Bulldog Way,Palermo,95968-9700,CA,7390 Bulldog Way,Palermo,95968-9700,CA,(530) 533-4842,6007,(530) 532-1047,Gary,Rogers,39.435403,-121.54617,10/30/2025,Butte,04615230000000 - Palermo Union Elementary,cde_public_districts
0461531,04615310000000,Butte,Paradise Unified,54,Unified School District,Active,6696 Clark Road,Paradise,95969-2834,CA,6696 Clark Road,Paradise,95969-2834,CA,(530) 872-6400,,(530) 872-6409,Elizabeth,Amis,39.778644,-121.58930,07/08/2025,Butte,04615310000000 - Paradise Unified,cde_public_districts
0461549,04615490000000,Butte,Thermalito Union Elementary,52,Elementary School District,Active,400 Grand Avenue,Oroville,95965-4007,CA,400 Grand Avenue,Oroville,95965-4007,CA,(530) 538-2900,,(530) 538-2908,Cody,Walker,39.519172,-121.57431,07/08/2025,Butte,04615490000000 - Thermalito Union Elementary,cde_public_districts
0473379,04733790000000,Butte,Pioneer Union Elementary,52,Elementary School District,Active,286 Rockerfeller Road,Berry Creek,95916-9724,CA,286 Rockerfeller Road,Berry Creek,95916-9724,CA,(530) 589-1633,,(530) 589-5021,Darcy,Pollak,39.625408,-121.37448,07/14/2025,Butte,04733790000000 - Pioneer Union Elementary,cde_public_districts
0474682,04746820000000,Butte,Butte County ROP,98,Regional Occupation Center/Program (ROC/P),Active,"2491 Carmichael Drive, Suite 100",Chico,95928,CA,"2491 Carmichael Drive, Suite 100",Chico,95928,CA,(530) 879-7462,,(530) 879-7463,Amanda,Samons,39.715783,-121.80426,10/31/2024,Butte,04746820000000 - Butte County ROP,cde_public_districts
0475507,04755070000000,Butte,Gridley Unified,54,Unified School District,Active,429 Magnolia Street,Gridley,95948-2533,CA,429 Magnolia Street,Gridley,95948-2533,CA,(530) 846-4721,,(530) 846-4595,Justin,Kern,39.363133,-121.69110,08/11/2022,Butte,04755070000000 - Gridley Unified,cde_public_districts
0510058,05100580000000,Calaveras,Calaveras County Office of Education,00,County Office of Education (COE),Active,185 South Main Street,Angels Camp,95222-0760,CA,PO Box 760,Angels Camp,95221-0760,CA,(209) 736-4662,,(209) 736-2138,Jared,Hungerford,38.080930,-120.55516,07/01/2025,Calaveras,05100580000000 - Calaveras County Office of Education,cde_public_districts
0561556,05615560000000,Calaveras,Bret Harte Union High,56,High School District,Active,323 South Main Street,Angels Camp,95221,CA,PO Box 7000,Angels Camp,95221,CA,(209) 736-8340,,(209) 736-8367,Scott,Nanik,38.078506,-120.55249,02/05/2025,Calaveras,05615560000000 - Bret Harte Union High,cde_public_districts
0561564,05615640000000,Calaveras,Calaveras Unified,54,Unified School District,Active,3304 B Highway 12,San Andreas,95249-0788,CA,PO Box 788,San Andreas,95249-0788,CA,(209) 754-2300,,(209) 754-5361,Ron,Estes,38.207600,-120.76700,06/14/2024,Calaveras,05615640000000 - Calaveras Unified,cde_public_districts
0561572,05615720000000,Calaveras,Mark Twain Union Elementary,52,Elementary School District,Active,981 Tuolumne Avenue,Angels Camp,95222-1359,CA,PO Box 1359,Angels Camp,95222-1359,CA,(209) 736-1855,,(209) 736-6888,Louise,Simson,38.074556,-120.55430,07/11/2024,Calaveras,05615720000000 - Mark Twain Union Elementary,cde_public_districts
0561580,05615800000000,Calaveras,Vallecito Union,52,Elementary School District,Active,4545 B Moran Road,Avery,95224,CA,PO Box 329,Avery,95224-0329,CA,(209) 795-8500,,(209) 795-8505,Thomas,Hoskins,38.201889,-120.36548,03/23/2022,Calaveras,05615800000000 - Vallecito Union,cde_public_districts
0610066,06100660000000,Colusa,Colusa County Office of Education,00,County Office of Education (COE),Active,"345 5th Street, Suite A",Colusa,95932-2445,CA,"345 5th Street, Suite A",Colusa,95932-2445,CA,(530) 458-0350,,(530) 458-8054,Chuck,Wayman,39.212432,-122.00831,01/02/2026,Colusa,06100660000000 - Colusa County Office of Education,cde_public_districts
0661598,06615980000000,Colusa,Colusa Unified,54,Unified School District,Active,745 10th Street,Colusa,95932-2220,CA,745 10th Street,Colusa,95932-2220,CA,(530) 458-7791,,(530) 458-4030,Rebecca,Changus,39.210697,-122.01659,03/23/2022,Colusa,06615980000000 - Colusa Unified,cde_public_districts
0661606,06616060000000,Colusa,Maxwell Unified,54,Unified School District,Active,515 Oak Street,Maxwell,95955-0788,CA,PO Box 788,Maxwell,95955-0788,CA,(530) 438-2052,,(530) 438-2693,Summer,Shadley,39.276200,-122.20354,03/23/2022,Colusa,06616060000000 - Maxwell Unified,cde_public_districts
0661614,06616140000000,Colusa,Pierce Joint Unified,54,Unified School District,Active,540 A Sixth Street,Arbuckle,95912,CA,PO Box 239,Arbuckle,95912-0239,CA,(530) 476-2892,,(530) 476-2289,Carol,Geyer,39.016000,-122.05770,09/07/2022,Colusa,06616140000000 - Pierce Joint Unified,cde_public_districts
0661622,06616220000000,Colusa,Williams Unified,54,Unified School District,Active,260 11th Street,Williams,95987-0007,CA,PO Box 7,Williams,95987-0007,CA,(530) 473-2550,,(530) 473-5894,Sandra,Ayon,39.156417,-122.15841,06/28/2023,Colusa,06616220000000 - Williams Unified,cde_public_districts
0710074,07100740000000,Contra Costa,Contra Costa County Office of Education,00,County Office of Education (COE),Active,77 Santa Barbara Road,Pleasant Hill,94523-4201,CA,77 Santa Barbara Road,Pleasant Hill,94523-4201,CA,(925) 942-3380,,,Lynn,Mackey,37.935382,-122.06991,08/16/2023,Contra Costa,07100740000000 - Contra Costa County Office of Education,cde_public_districts
0761630,07616300000000,Contra Costa,Acalanes Union High,56,High School District,Active,1212 Pleasant Hill Road,Lafayette,94549-2623,CA,1212 Pleasant Hill Road,Lafayette,94549-2623,CA,(925) 280-3900,,(925) 932-2336,John,Nickerson,37.905816,-122.09980,03/23/2022,Contra Costa,07616300000000 - Acalanes Union High,cde_public_districts
0761648,07616480000000,Contra Costa,Antioch Unified,54,Unified School District,Active,510 G Street,Antioch,94509-1259,CA,510 G Street,Antioch,94509-1259,CA,(925) 779-7500,,,Darnise,Williams,38.014398,-121.81376,07/24/2025,Contra Costa,07616480000000 - Antioch Unified,cde_public_districts
0761655,07616550000000,Contra Costa,Brentwood Union,52,Elementary School District,Active,255 Guthrie Lane,Brentwood,94513-1610,CA,255 Guthrie Lane,Brentwood,94513-1610,CA,(925) 513-6300,,(925) 634-4657,Dana,Eaton,37.922123,-121.68269,08/08/2023,Contra Costa,07616550000000 - Brentwood Union,cde_public_districts
0761663,07616630000000,Contra Costa,Byron Union Elementary,52,Elementary School District,Active,14301 Byron Highway,Byron,94514-2515,CA,14301 Byron Highway,Byron,94514-2515,CA,(925) 809-7502,,(925) 634-9421,Crystal,Castaneda,37.857008,-121.62878,08/03/2022,Contra Costa,07616630000000 - Byron Union Elementary,cde_public_districts
0761671,07616710000000,Contra Costa,Canyon Elementary,52,Elementary School District,Active,187 Pinehurst Road PO Box 187,Canyon,94516-0187,CA,PO Box 187 PO Box 187,Canyon,94516-0187,CA,(925) 376-4671,,,Julie,Valdez,37.830425,-122.16623,07/24/2025,Contra Costa,07616710000000 - Canyon Elementary,cde_public_districts
0761697,07616970000000,Contra Costa,John Swett Unified,54,Unified School District,Active,400 Parker Avenue,Rodeo,94572-1400,CA,400 Parker Avenue,Rodeo,94572-1400,CA,(510) 245-4300,2105,(510) 245-4312,Leticia,Bhatia,38.032612,-122.26702,08/21/2025,Contra Costa,07616970000000 - John Swett Unified,cde_public_districts
0761705,07617050000000,Contra Costa,Knightsen Elementary,52,Elementary School District,Active,1923 Delta Road,Knightsen,94548-0265,CA,PO Box 265,Knightsen,94548-0265,CA,(925) 626-3310,,(925) 625-8766,Harvey,Yurkovich,37.968769,-121.66169,08/08/2023,Contra Costa,07617050000000 - Knightsen Elementary,cde_public_districts
0761713,07617130000000,Contra Costa,Lafayette Elementary,52,Elementary School District,Active,3477 School Street,Lafayette,94549-1029,CA,3477 School Street,Lafayette,94549-1029,CA,(925) 927-3500,,(925) 284-1525,Brent,Stephens,37.887517,-122.11411,11/02/2023,Contra Costa,07617130000000 - Lafayette Elementary,cde_public_districts
0761721,07617210000000,Contra Costa,Liberty Union High,56,High School District,Active,20 Oak Street,Brentwood,94513-1379,CA,20 Oak Street,Brentwood,94513-1379,CA,(925) 634-2166,,(925) 634-1687,Denise,Rugani,37.934950,-121.68870,07/09/2024,Contra Costa,07617210000000 - Liberty Union High,cde_public_districts
0761739,07617390000000,Contra Costa,Martinez Unified,54,Unified School District,Active,921 Susana Street,Martinez,94553-1848,CA,921 Susana Street,Martinez,94553-1848,CA,(925) 335-5800,,(925) 335-5960,Gigi,Patrick,38.014885,-122.13180,07/21/2025,Contra Costa,07617390000000 - Martinez Unified,cde_public_districts
0761747,07617470000000,Contra Costa,Moraga Elementary,52,Elementary School District,Active,1540 School Street,Moraga,94556-0158,CA,1540 School Street,Moraga,94556-0158,CA,(925) 376-5943,,,Julie,Parks,37.834650,-122.13109,03/23/2022,Contra Costa,07617470000000 - Moraga Elementary,cde_public_districts
0761754,07617540000000,Contra Costa,Mt. Diablo Unified,54,Unified School District,Active,1936 Carlotta Drive,Concord,94519-1397,CA,1936 Carlotta Drive,Concord,94519-1397,CA,(925) 682-8000,4000,(925) 689-1649,Adam,Clark,37.987477,-122.00607,03/23/2022,Contra Costa,07617540000000 - Mt. Diablo Unified,cde_public_districts
0761762,07617620000000,Contra Costa,Oakley Union Elementary,52,Elementary School District,Active,91 Mercedes Lane,Oakley,94561-4617,CA,91 Mercedes Lane,Oakley,94561-4617,CA,(925) 625-0700,,(925) 625-1863,Jeff,Palmquist,37.981486,-121.71628,03/23/2022,Contra Costa,07617620000000 - Oakley Union Elementary,cde_public_districts
0761770,07617700000000,Contra Costa,Orinda Union,52,Elementary School District,Active,8 Altarinda Road,Orinda,94563-2603,CA,8 Altarinda Road,Orinda,94563-2603,CA,(925) 254-4901,,(925) 254-5261,Aida,Glimme,37.882694,-122.18306,10/01/2025,Contra Costa,07617700000000 - Orinda Union,cde_public_districts
0761788,07617880000000,Contra Costa,Pittsburg Unified,54,Unified School District,Active,2000 Railroad Avenue,Pittsburg,94565-3830,CA,2000 Railroad Avenue,Pittsburg,94565-3830,CA,(925) 473-2300,,(925) 473-4274,Janet,Schulze,38.020229,-121.88820,03/23/2022,Contra Costa,07617880000000 - Pittsburg Unified,cde_public_districts
0761796,07617960000000,Contra Costa,West Contra Costa Unified,54,Unified School District,Active,1108 Bissell Avenue,Richmond,94801-3135,CA,1108 Bissell Avenue,Richmond,94801-3135,CA,(510) 231-1100,,(510) 236-6784,Cheryl,Cotton,37.934063,-122.35848,06/26/2025,Contra Costa,07617960000000 - West Contra Costa Unified,cde_public_districts
0761804,07618040000000,Contra Costa,San Ramon Valley Unified,54,Unified School District,Active,699 Old Orchard Drive,Danville,94526-4331,CA,699 Old Orchard Drive,Danville,94526-4331,CA,(925) 552-5500,,(925) 838-3147,CJ,Cammack,37.812241,-121.97705,07/01/2024,Contra Costa,07618040000000 - San Ramon Valley Unified,cde_public_districts
0761812,07618120000000,Contra Costa,Walnut Creek Elementary,52,Elementary School District,Active,960 Ygnacio Valley Road,Walnut Creek,94596-3826,CA,960 Ygnacio Valley Road,Walnut Creek,94596-3826,CA,(925) 944-6850,,(925) 944-1768,Marie,Morgan,37.908010,-122.05564,09/13/2021,Contra Costa,07618120000000 - Walnut Creek Elementary,cde_public_districts
0774344,07743440000000,Contra Costa,Contra Costa County ROP,98,Regional Occupation Center/Program (ROC/P),Active,77 Santa Barbara Road,Pleasant Hill,94523,CA,77 Santa Barbara Road,Pleasant Hill,94523,CA,(925) 942-3368,,,Hilary,Dito,37.935012,-122.06968,09/13/2022,Contra Costa,07743440000000 - Contra Costa County ROP,cde_public_districts
0777354,07773540000000,Contra Costa,SBE - John Henry High,02,State Board of Education,Active,1402 Marina Way South,Richmond,94804-2411,CA,1402 Marina Way South,Richmond,94804-2411,CA,(510) 235-2439,,(510) 235-2487,Adrienne,Barnes,37.912765,-122.35488,01/14/2025,Contra Costa,07773540000000 - SBE - John Henry High,cde_public_districts
0810082,08100820000000,Del Norte,Del Norte County Office of Education,00,County Office of Education (COE),Active,301 West Washington Boulevard,Crescent City,95531-8340,CA,301 West Washington Boulevard,Crescent City,95531-8340,CA,(707) 464-0200,,(707) 464-0238,Jeff,Harris,41.772734,-124.20591,07/17/2019,Del Norte,08100820000000 - Del Norte County Office of Education,cde_public_districts
0861820,08618200000000,Del Norte,Del Norte County Unified,54,Unified School District,Active,301 West Washington Boulevard,Crescent City,95531-8340,CA,301 West Washington Boulevard,Crescent City,95531-8340,CA,(707) 464-0200,,(707) 464-0238,Jeff,Harris,41.772734,-124.20591,03/23/2022,Del Norte,08618200000000 - Del Norte County Unified,cde_public_districts
0874351,08743510000000,Del Norte,Del Norte County ROP,98,Regional Occupation Center/Program (ROC/P),Active,301 West Washington Boulevard,Crescent City,95531,CA,301 West Washington Boulevard,Crescent City,95531,CA,(707) 464-0274,,,Coleen,Parker,41.772734,-124.20591,11/18/2015,Del Norte,08743510000000 - Del Norte County ROP,cde_public_districts
0910090,09100900000000,El Dorado,El Dorado County Office of Education,00,County Office of Education (COE),Active,6767 Green Valley Road,Placerville,95667-8984,CA,6767 Green Valley Road,Placerville,95667-8984,CA,(530) 622-7130,,(530) 621-2543,Ed,Manansala,38.720320,-120.86639,07/13/2020,El Dorado,09100900000000 - El Dorado County Office of Education,cde_public_districts
0961838,09618380000000,El Dorado,Buckeye Union Elementary,52,Elementary School District,Active,5049 Robert J Mathews Parkway,El Dorado Hills,95762-5737,CA,PO Box 4768,El Dorado Hills,95762,CA,(530) 677-2261,,(916) 934-0920,David,Roth,38.623200,-121.05792,04/12/2018,El Dorado,09618380000000 - Buckeye Union Elementary,cde_public_districts
0961846,09618460000000,El Dorado,Camino Union Elementary,52,Elementary School District,Active,3060 Snows Road,Camino,95709-9578,CA,3060 Snows Road,Camino,95709-9578,CA,(530) 644-4552,,(530) 644-5412,Matthew,Barnes,38.734611,-120.67882,01/08/2025,El Dorado,09618460000000 - Camino Union Elementary,cde_public_districts
0961853,09618530000000,El Dorado,El Dorado Union High,56,High School District,Active,4675 Missouri Flat Road,Placerville,95667-6816,CA,4675 Missouri Flat Road,Placerville,95667-6816,CA,(530) 622-5081,,(530) 622-5087,Michael,Kuhlman,38.694651,-120.82379,10/14/2024,El Dorado,09618530000000 - El Dorado Union High,cde_public_districts
0961879,09618790000000,El Dorado,Gold Oak Union Elementary,52,Elementary School District,Active,3171 Pleasant Valley Road,Placerville,95667-7836,CA,3171 Pleasant Valley Road,Placerville,95667-7836,CA,(530) 626-3150,,(530) 626-3145,Jennifer,Kloczko,38.692386,-120.71838,06/03/2025,El Dorado,09618790000000 - Gold Oak Union Elementary,cde_public_districts
0961887,09618870000000,El Dorado,Gold Trail Union Elementary,52,Elementary School District,Active,1575 Old Ranch Road,Placerville,95667-8929,CA,1575 Old Ranch Road,Placerville,95667-8929,CA,(530) 626-3194,,(530) 626-3199,Keri,Phillips,38.770686,-120.92795,01/22/2021,El Dorado,09618870000000 - Gold Trail Union Elementary,cde_public_districts
0961895,09618950000000,El Dorado,Indian Diggings Elementary,52,Elementary School District,Active,6020 Omo Ranch Road,Somerset,95684-9209,CA,6020 Omo Ranch Road,Somerset,95684-9209,CA,(530) 620-6546,,(530) 620-8690,Grant,Coffin,38.581663,-120.57737,11/14/2023,El Dorado,09618950000000 - Indian Diggings Elementary,cde_public_districts
0961903,09619030000000,El Dorado,Lake Tahoe Unified,54,Unified School District,Active,1021 Al Tahoe Boulevard,South Lake Tahoe,96150-4426,CA,1021 Al Tahoe Boulevard,South Lake Tahoe,96150-4426,CA,(530) 541-2850,,(530) 543-2224,Todd,Cutler,38.934432,-119.97607,05/08/2024,El Dorado,09619030000000 - Lake Tahoe Unified,cde_public_districts
0961911,09619110000000,El Dorado,Latrobe,52,Elementary School District,Active,7900 South Shingle Road,Shingle Springs,95682-8026,CA,7900 South Shingle Road,Shingle Springs,95682-8026,CA,(530) 677-0260,,(530) 672-0463,Dave,Scroggins,38.555370,-120.99051,08/19/2025,El Dorado,09619110000000 - Latrobe,cde_public_districts
0961929,09619290000000,El Dorado,Mother Lode Union Elementary,52,Elementary School District,Active,3783 Forni Road,Placerville,95667-6207,CA,3783 Forni Road,Placerville,95667-6207,CA,(530) 622-6464,,(530) 622-6163,Larry,Mahoney,38.708332,-120.83076,08/20/2024,El Dorado,09619290000000 - Mother Lode Union Elementary,cde_public_districts
0961945,09619450000000,El Dorado,Pioneer Union,52,Elementary School District,Active,6862 Mount Aukum Road,Somerset,95684-0008,CA,6862 Mount Aukum Road,Somerset,95684-0008,CA,(530) 620-3556,,,Patrick,Paturel,38.605270,-120.71193,03/10/2023,El Dorado,09619450000000 - Pioneer Union,cde_public_districts
0961952,09619520000000,El Dorado,Placerville Union Elementary,52,Elementary School District,Active,1032 Thompson Way,Placerville,95667-5713,CA,1032 Thompson Way,Placerville,95667-5713,CA,(530) 622-7216,,(530) 622-0336,Eric,Bonniksen,38.728522,-120.79343,08/23/2016,El Dorado,09619520000000 - Placerville Union Elementary,cde_public_districts
0961960,09619600000000,El Dorado,Pollock Pines Elementary,52,Elementary School District,Active,2701 Amber Trail,Pollock Pines,95726-9608,CA,2701 Amber Trail,Pollock Pines,95726-9608,CA,(530) 644-5416,,(530) 644-5483,Kim,Little,38.746541,-120.57773,08/14/2023,El Dorado,09619600000000 - Pollock Pines Elementary,cde_public_districts
0961978,09619780000000,El Dorado,Rescue Union Elementary,52,Elementary School District,Active,2390 Bass Lake Road,Rescue,95672-9608,CA,2390 Bass Lake Road,Rescue,95672-9608,CA,(530) 677-4461,,(530) 677-0719,Jim,Shoemake,38.694692,-121.00831,12/07/2023,El Dorado,09619780000000 - Rescue Union Elementary,cde_public_districts
0961986,09619860000000,El Dorado,Silver Fork Elementary,52,Elementary School District,Active,2701 Amber Trail,Pollock Pines,95726-9266,CA,2701 Amber Trail,Pollock Pines,95726-9266,CA,(530) 644-5416,,(530) 644-5483,Kim,Little,38.746541,-120.57773,08/14/2023,El Dorado,09619860000000 - Silver Fork Elementary,cde_public_districts
0973783,09737830000000,El Dorado,Black Oak Mine Unified,54,Unified School District,Active,6540 Wentworth Springs Road,Georgetown,95634-9001,CA,6540 Wentworth Springs Road,Georgetown,95634-9001,CA,(530) 333-8300,,(530) 333-8303,Carrie,Arnett,38.912124,-120.83039,11/14/2025,El Dorado,09737830000000 - Black Oak Mine Unified,cde_public_districts
0974377,09743770000000,El Dorado,Central Sierra ROP,98,Regional Occupation Center/Program (ROC/P),Active,337 Placerville Drive,Placerville,95667,CA,337 Placerville Drive,Placerville,95667,CA,(530) 622-7130,,,Kevin,Monsma,38.731810,-120.83506,02/03/2023,El Dorado,09743770000000 - Central Sierra ROP,cde_public_districts
1010108,10101080000000,Fresno,Fresno County Office of Education,00,County Office of Education (COE),Active,1111 Van Ness Avenue,Fresno,93721-2002,CA,1111 Van Ness Avenue,Fresno,93721-2002,CA,(559) 265-3000,,(559) 237-0733,Michele,Cantwell-Copher,36.735686,-119.79037,01/11/2023,Fresno,10101080000000 - Fresno County Office of Education,cde_public_districts
1061994,10619940000000,Fresno,Alvina Elementary,52,Elementary School District,Active,295 West Saginaw Avenue,Caruthers,93609-9710,CA,295 West Saginaw Avenue,Caruthers,93609-9710,CA,(559) 864-9411,,(559) 864-1808,Mike,Iribarren,36.554513,-119.79619,01/18/2017,Fresno,10619940000000 - Alvina Elementary,cde_public_districts
1062026,10620260000000,Fresno,Big Creek Elementary,52,Elementary School District,Active,55190 Point Road,Big Creek,93605-0098,CA,PO Box 98,Big Creek,93605-0098,CA,(559) 893-3314,,(559) 893-3315,Brad,Huebert,37.204100,-119.24840,07/10/2025,Fresno,10620260000000 - Big Creek Elementary,cde_public_districts
1062042,10620420000000,Fresno,Burrel Union Elementary,52,Elementary School District,Active,16704 South Jameson Avenue,Riverdale,93656-9746,CA,16704 South Jameson Avenue,Riverdale,93656-9746,CA,(559) 866-5634,,,Elizabeth,Runyon,36.492809,-119.98978,08/15/2022,Fresno,10620420000000 - Burrel Union Elementary,cde_public_districts
1062109,10621090000000,Fresno,Clay Joint Elementary,52,Elementary School District,Active,12449 South Smith Avenue,Kingsburg,93631-9717,CA,12449 South Smith Avenue,Kingsburg,93631-9717,CA,(559) 897-4185,,(559) 897-2280,Judith,Szpor,36.554906,-119.50469,08/21/2023,Fresno,10621090000000 - Clay Joint Elementary,cde_public_districts
1062117,10621170000000,Fresno,Clovis Unified,54,Unified School District,Active,1450 Herndon Avenue,Clovis,93611-0567,CA,1450 Herndon Avenue,Clovis,93611-0567,CA,(559) 327-9000,,(559) 327-9109,Corrine,Folmer,36.837575,-119.68977,07/05/2023,Fresno,10621170000000 - Clovis Unified,cde_public_districts
1062125,10621250000000,Fresno,Coalinga-Huron Unified,54,Unified School District,Active,657 Sunset Street,Coalinga,93210-2927,CA,657 Sunset Street,Coalinga,93210-2927,CA,(559) 935-7500,,(559) 935-5329,David,Moore,36.142334,-120.36406,08/19/2025,Fresno,10621250000000 - Coalinga-Huron Unified,cde_public_districts
1062158,10621580000000,Fresno,Fowler Unified,54,Unified School District,Active,658 East Adams Avenue,Fowler,93625-2111,CA,658 East Adams Avenue,Fowler,93625-2111,CA,(559) 834-6080,,(559) 834-3390,Lindsay,Sanders,36.634569,-119.67400,08/03/2022,Fresno,10621580000000 - Fowler Unified,cde_public_districts
1062166,10621660000000,Fresno,Fresno Unified,54,Unified School District,Active,2309 Tulare Street,Fresno,93721-2287,CA,2309 Tulare Street,Fresno,93721-2287,CA,(559) 457-3000,,,Mao Misty,Her,36.736759,-119.78699,08/28/2025,Fresno,10621660000000 - Fresno Unified,cde_public_districts
1062240,10622400000000,Fresno,Kingsburg Elementary Charter,52,Elementary School District,Active,1310 Stroud Avenue,Kingsburg,93631-1000,CA,1310 Stroud Avenue,Kingsburg,93631-1000,CA,(559) 897-2331,,(559) 897-4784,Wesley,Sever,36.525086,-119.55427,09/02/2025,Fresno,10622400000000 - Kingsburg Elementary Charter,cde_public_districts
1062257,10622570000000,Fresno,Kingsburg Joint Union High,56,High School District,Active,1900 18th Avenue,Kingsburg,93631-1629,CA,1900 18th Avenue,Kingsburg,93631-1629,CA,(559) 897-7721,,(559) 419-6404,Ryan,Phelan,36.517915,-119.54780,08/29/2024,Fresno,10622570000000 - Kingsburg Joint Union High,cde_public_districts
1062265,10622650000000,Fresno,Kings Canyon Joint Unified,54,Unified School District,Active,1801 Tenth Street,Reedley,93654-2427,CA,1502 I Street,Reedley,93654-2427,CA,(559) 305-7010,,(559) 823-3750,John,Campbell,36.596434,-119.45337,03/23/2022,Fresno,10622650000000 - Kings Canyon Joint Unified,cde_public_districts
1062281,10622810000000,Fresno,Laton Joint Unified,54,Unified School District,Active,6259 DeWoody,Laton,93242-0248,CA,PO Box 248,Laton,93242-0248,CA,(559) 922-4015,,(559) 923-4791,Lupe,Nieves,36.434481,-119.68550,08/19/2025,Fresno,10622810000000 - Laton Joint Unified,cde_public_districts
1062331,10623310000000,Fresno,Orange Center,52,Elementary School District,Active,3530 South Cherry Avenue,Fresno,93706-5615,CA,3530 South Cherry Avenue,Fresno,93706-5615,CA,(559) 237-0437,,(559) 237-9380,Terry,Hirschfield,36.682253,-119.78167,03/23/2022,Fresno,10623310000000 - Orange Center,cde_public_districts
1062356,10623560000000,Fresno,Pacific Union Elementary,52,Elementary School District,Active,2065 East Bowles Avenue,Fresno,93725-9630,CA,2065 East Bowles Avenue,Fresno,93725-9630,CA,(559) 834-2533,,(559) 834-6433,Annette,Machado,36.601749,-119.75334,03/23/2022,Fresno,10623560000000 - Pacific Union Elementary,cde_public_districts
1062364,10623640000000,Fresno,Parlier Unified,54,Unified School District,Active,900 South Newmark Avenue,Parlier,93648-2034,CA,900 South Newmark Avenue,Parlier,93648-2034,CA,(559) 646-2731,,(559) 646-0626,Rafael,Iniguez,36.615617,-119.52803,01/31/2023,Fresno,10623640000000 - Parlier Unified,cde_public_districts
1062372,10623720000000,Fresno,Pine Ridge Elementary,52,Elementary School District,Active,45828 Auberry Road,Auberry,93602-9721,CA,45828 Auberry Road,Auberry,93602-9721,CA,(559) 841-2444,,,Steve,Rosa,37.059508,-119.38959,03/23/2022,Fresno,10623720000000 - Pine Ridge Elementary,cde_public_districts
1062380,10623800000000,Fresno,Raisin City Elementary,52,Elementary School District,Active,6425 West Bowles Avenue,Raisin City,93652-0069,CA,PO Box 69,Raisin City,93652-0069,CA,(559) 233-0128,,(559) 486-0891,Orin,Hirschkorn,36.600962,-119.90627,08/11/2021,Fresno,10623800000000 - Raisin City Elementary,cde_public_districts
1062414,10624140000000,Fresno,Sanger Unified,54,Unified School District,Active,1905 Seventh Street,Sanger,93657-2806,CA,1905 Seventh Street,Sanger,93657-2806,CA,(559) 524-6521,,(559) 875-7941,Dennis,Wiechmann,36.705838,-119.56406,07/11/2023,Fresno,10624140000000 - Sanger Unified,cde_public_districts
1062430,10624300000000,Fresno,Selma Unified,54,Unified School District,Active,3036 Thompson Avenue,Selma,93662-2497,CA,3036 Thompson Avenue,Selma,93662-2497,CA,(559) 898-6500,,(559) 896-7147,Edward,Gomes,36.578367,-119.61956,08/17/2023,Fresno,10624300000000 - Selma Unified,cde_public_districts
1062513,10625130000000,Fresno,Washington Colony Elementary,52,Elementary School District,Active,130 East Lincoln Avenue,Fresno,93706-6043,CA,130 East Lincoln Avenue,Fresno,93706-6043,CA,(559) 233-0706,,(559) 233-9583,Jesus,Cruz,36.649316,-119.78765,08/27/2024,Fresno,10625130000000 - Washington Colony Elementary,cde_public_districts
1062539,10625390000000,Fresno,West Park Elementary,52,Elementary School District,Active,2695 South Valentine Avenue,Fresno,93706-9042,CA,2695 South Valentine Avenue,Fresno,93706-9042,CA,(559) 233-6501,,,Brian,Clark,36.691385,-119.85350,09/27/2022,Fresno,10625390000000 - West Park Elementary,cde_public_districts
1062547,10625470000000,Fresno,Westside Elementary,52,Elementary School District,Active,19191 Excelsior Avenue,Five Points,93624-0398,CA,19191 Excelsior Avenue,Five Points,93624-0398,CA,(559) 884-2492,,(559) 884-2206,Gary,Cunha,36.400119,-120.14305,08/14/2024,Fresno,10625470000000 - Westside Elementary,cde_public_districts
1073809,10738090000000,Fresno,Firebaugh-Las Deltas Unified,54,Unified School District,Active,1976 Morris Kyle Drive,Firebaugh,93622-9711,CA,1976 Morris Kyle Drive,Firebaugh,93622-9711,CA,(559) 659-1476,,(559) 659-2355,Troy,Cox,36.846874,-120.44691,10/20/2025,Fresno,10738090000000 - Firebaugh-Las Deltas Unified,cde_public_districts
1073965,10739650000000,Fresno,Central Unified,54,Unified School District,Active,5652 West Gettysburg Avenue,Fresno,93722-3749,CA,5652 West Gettysburg Avenue,Fresno,93722-3749,CA,(559) 274-4700,10150,(559) 271-8200,Mark,Marshall,36.801314,-119.89214,07/15/2025,Fresno,10739650000000 - Central Unified,cde_public_districts
1073999,10739990000000,Fresno,Kerman Unified,54,Unified School District,Active,15218 West Whitesbridge Avenue,Kerman,93630-1029,CA,15218 West Whitesbridge Avenue,Kerman,93630-1029,CA,(559) 843-9000,,(559) 840-4279,Gordon,Pacheco,36.734959,-120.06314,01/13/2023,Fresno,10739990000000 - Kerman Unified,cde_public_districts
1074153,10741530000000,Fresno,Valley ROP,98,Regional Occupation Center/Program (ROC/P),Active,310 West Myrtle Avenue,Reedley,93654,CA,310 West Myrtle Avenue,Reedley,93654,CA,(559) 876-2122,,(559) 876-2102,Fabrizio,Lofaro,36.602560,-119.45122,12/04/2024,Fresno,10741530000000 - Valley ROP,cde_public_districts
1074260,10742600000000,Fresno,Fresno ROP,98,Regional Occupation Center/Program (ROC/P),Active,11 South Teilman Street,Fresno,93706,CA,11 South Teilman Street,Fresno,93706,CA,(559) 497-3860,,,Janet,Sloan,36.741857,-119.82177,10/05/2021,Fresno,10742600000000 - Fresno ROP,cde_public_districts
1075127,10751270000000,Fresno,Mendota Unified,54,Unified School District,Active,115 McCabe Avenue,Mendota,93640-2000,CA,115 McCabe Avenue,Mendota,93640-2000,CA,(559) 655-4942,,(559) 655-4944,Paul,Lopez,36.761094,-120.38701,03/23/2022,Fresno,10751270000000 - Mendota Unified,cde_public_districts
1075234,10752340000000,Fresno,Golden Plains Unified,54,Unified School District,Active,22000 Nevada Street,San Joaquin,93660,CA,PO Box 937,San Joaquin,93660,CA,(559) 210-5801,,(559) 525-3013,Felipe,Piedra,36.609200,-120.18750,09/19/2023,Fresno,10752340000000 - Golden Plains Unified,cde_public_districts
1075275,10752750000000,Fresno,Sierra Unified,54,Unified School District,Active,29143 Auberry Road,Prather,93651-9757,CA,29143 Auberry Road,Prather,93651-9757,CA,(559) 855-3662,,(559) 855-3585,Lori,Grace,37.036855,-119.52014,07/02/2024,Fresno,10752750000000 - Sierra Unified,cde_public_districts
1075408,10754080000000,Fresno,Riverdale Joint Unified,54,Unified School District,Active,3160 West Mount Whitney Avenue,Riverdale,93656-9272,CA,PO Box 1058,Riverdale,93656-1058,CA,(559) 867-8200,,(559) 867-6722,Jeff,Percell,36.430962,-119.85498,12/12/2018,Fresno,10754080000000 - Riverdale Joint Unified,cde_public_districts
1075598,10755980000000,Fresno,Caruthers Unified,54,Unified School District,Active,2200 West Tahoe,Caruthers,93609,CA,PO Box 127,Caruthers,93609,CA,(559) 864-6500,,(559) 864-8857,Orin,Hirschkorn,36.543820,-119.83165,12/09/2022,Fresno,10755980000000 - Caruthers Unified,cde_public_districts
1076778,10767780000000,Fresno,Washington Unified,54,Unified School District,Active,7950 South Elm Avenue,Fresno,93706-9283,CA,7950 South Elm Avenue,Fresno,93706-9283,CA,(559) 495-5600,,,Randy,Morris,36.620238,-119.78996,11/12/2024,Fresno,10767780000000 - Washington Unified,cde_public_districts
1110116,11101160000000,Glenn,Glenn County Office of Education,00,County Office of Education (COE),Active,311 South Villa Avenue,Willows,95988-2739,CA,311 South Villa Avenue,Willows,95988-2739,CA,(530) 934-6575,,(530) 934-6576,Ryan,Bentz,39.517633,-122.20890,11/03/2023,Glenn,11101160000000 - Glenn County Office of Education,cde_public_districts
1162554,11625540000000,Glenn,Capay Joint Union Elementary,52,Elementary School District,Active,7504 Cutting Avenue,Orland,95963-9691,CA,7504 Cutting Avenue,Orland,95963-9691,CA,(530) 865-1222,21,(530) 865-1214,Nikol,Baker,39.796979,-122.08580,09/23/2025,Glenn,11625540000000 - Capay Joint Union Elementary,cde_public_districts
1162596,11625960000000,Glenn,Lake Elementary,52,Elementary School District,Active,4672 County Road N,Orland,95963-8122,CA,4672 County Road N,Orland,95963-8122,CA,(530) 865-1255,,(530) 865-1203,Patrick,Conklin,39.775308,-122.15968,07/01/2025,Glenn,11625960000000 - Lake Elementary,cde_public_districts
1162638,11626380000000,Glenn,Plaza Elementary,52,Elementary School District,Active,7322 County Road 24,Orland,95963-9777,CA,7322 County Road 24,Orland,95963-9777,CA,(530) 865-1250,,,Patrick,Conklin,39.710433,-122.09769,11/06/2023,Glenn,11626380000000 - Plaza Elementary,cde_public_districts
1162646,11626460000000,Glenn,Princeton Joint Unified,54,Unified School District,Active,473 State Street,Princeton,95970,CA,473 State Street,Princeton,95970,CA,(530) 439-2261,,(530) 517-6260,Jeff,Ochs,39.401532,-122.01118,07/05/2023,Glenn,11626460000000 - Princeton Joint Unified,cde_public_districts
1162653,11626530000000,Glenn,Stony Creek Joint Unified,54,Unified School District,Active,3430 County Road 309,Elk Creek,95939-9708,CA,3430 County Road 309,Elk Creek,95939-9708,CA,(530) 968-5361,,(530) 968-5102,Emily,Pendell,39.606388,-122.54428,08/21/2023,Glenn,11626530000000 - Stony Creek Joint Unified,cde_public_districts
1162661,11626610000000,Glenn,Willows Unified,54,Unified School District,Active,823 West Laurel Street,Willows,95988-2830,CA,823 West Laurel Street,Willows,95988-2830,CA,(530) 934-6600,,(530) 934-6609,Emmett,Koerperich,39.517931,-122.20350,03/23/2022,Glenn,11626610000000 - Willows Unified,cde_public_districts
1174385,11743850000000,Glenn,Glenn County ROP,98,Regional Occupation Center/Program (ROC/P),Active,451 South Villa Avenue,Willows,95988,CA,451 South Villa Avenue,Willows,95988,CA,(530) 934-6575,,(530) 934-6576,John,Dunn,39.515370,-122.20881,01/29/2016,Glenn,11743850000000 - Glenn County ROP,cde_public_districts
1175481,11754810000000,Glenn,Orland Joint Unified,54,Unified School District,Active,903 South Street,Orland,95963-1641,CA,903 South Street,Orland,95963-1641,CA,(530) 865-1200,,(530) 865-1202,Victor,Perry,39.740287,-122.19951,09/13/2021,Glenn,11754810000000 - Orland Joint Unified,cde_public_districts
1176562,11765620000000,Glenn,Hamilton Unified,54,Unified School District,Active,620 Canal Street,Hamilton City,95951,CA,PO Box 488,Hamilton City,95951-0488,CA,(530) 826-3261,6011,(530) 826-0440,Jeremy,Powell,39.745455,-122.01903,02/17/2023,Glenn,11765620000000 - Hamilton Unified,cde_public_districts
1210124,12101240000000,Humboldt,Humboldt County Office of Education,00,County Office of Education (COE),Active,901 Myrtle Avenue,Eureka,95501-1219,CA,901 Myrtle Avenue,Eureka,95501-1219,CA,(707) 445-7000,,(707) 445-7143,Michael,Davies-Hughes,40.800627,-124.14983,08/23/2024,Humboldt,12101240000000 - Humboldt County Office of Education,cde_public_districts
1262679,12626790000000,Humboldt,Arcata Elementary,52,Elementary School District,Active,1435 Buttermilk Lane,Arcata,95521-6909,CA,1435 Buttermilk Lane,Arcata,95521-6909,CA,(707) 822-0351,,(707) 822-6589,Luke,Biesecker,40.857327,-124.06698,08/23/2022,Humboldt,12626790000000 - Arcata Elementary,cde_public_districts
1262687,12626870000000,Humboldt,Northern Humboldt Union High,56,High School District,Active,2755 McKinleyville Avenue,McKinleyville,95519-3400,CA,2755 McKinleyville Avenue,McKinleyville,95519-3400,CA,(707) 839-6470,,(707) 839-6457,Roger,Macdonald,40.953070,-124.11040,10/15/2024,Humboldt,12626870000000 - Northern Humboldt Union High,cde_public_districts
1262695,12626950000000,Humboldt,Big Lagoon Union Elementary,52,Elementary School District,Active,269 Big Lagoon Park Road,Trinidad,95570-9622,CA,269 Big Lagoon Park Road,Trinidad,95570-9622,CA,(707) 677-3688,,,Cathie,Shermer,41.163180,-124.13065,10/15/2025,Humboldt,12626950000000 - Big Lagoon Union Elementary,cde_public_districts
1262703,12627030000000,Humboldt,Blue Lake Union Elementary,52,Elementary School District,Active,631 Greenwood Avenue,Blue Lake,95525-0268,CA,PO Box 268,Blue Lake,95525-0268,CA,(707) 668-5674,100,(707) 668-5619,DeAnn,Waldvogel,40.885068,-123.99190,10/16/2024,Humboldt,12627030000000 - Blue Lake Union Elementary,cde_public_districts
1262729,12627290000000,Humboldt,Bridgeville Elementary,52,Elementary School District,Active,38717 Kneeland Road,Bridgeville,95526-0098,CA,PO Box 98,Bridgeville,95526-0098,CA,(707) 777-3311,,(707) 777-3023,John,Blakely,40.499626,-123.81802,10/10/2023,Humboldt,12627290000000 - Bridgeville Elementary,cde_public_districts
1262737,12627370000000,Humboldt,Cuddeback Union Elementary,52,Elementary School District,Active,300 Wilder Road,Carlotta,95528-0007,CA,PO Box 7,Carlotta,95528-0007,CA,(707) 768-3372,,,Blaine,Sigler,40.536688,-124.04149,02/23/2026,Humboldt,12627370000000 - Cuddeback Union Elementary,cde_public_districts
1262745,12627450000000,Humboldt,Cutten Elementary,52,Elementary School District,Active,4182 Walnut Drive,Eureka,95503-6223,CA,4182 Walnut Drive,Eureka,95503-6223,CA,(707) 441-3900,,(707) 441-3906,Becky,MacQuarrie,40.766216,-124.14308,03/23/2022,Humboldt,12627450000000 - Cutten Elementary,cde_public_districts
1262794,12627940000000,Humboldt,Fieldbrook Elementary,52,Elementary School District,Active,4070 Fieldbrook Road,McKinleyville,95519-9709,CA,4070 Fieldbrook Road,McKinleyville,95519-9709,CA,(707) 839-3201,,,Wendy,Orlandi,40.951789,-124.03267,08/07/2024,Humboldt,12627940000000 - Fieldbrook Elementary,cde_public_districts
1262810,12628100000000,Humboldt,Fortuna Union High,56,High School District,Active,735 13th Street,Fortuna,95540-2108,CA,735 13th Street,Fortuna,95540-2108,CA,(707) 725-4462,,(707) 725-6085,Clint,Duey,40.598388,-124.15320,01/29/2024,Humboldt,12628100000000 - Fortuna Union High,cde_public_districts
1262828,12628280000000,Humboldt,Freshwater Elementary,52,Elementary School District,Active,75 Greenwood Heights Drive,Eureka,95503-9569,CA,75 Greenwood Heights Drive,Eureka,95503-9569,CA,(707) 442-2969,,(707) 442-9527,Si,Talty,40.787702,-124.08259,03/23/2022,Humboldt,12628280000000 - Freshwater Elementary,cde_public_districts
1262836,12628360000000,Humboldt,Garfield Elementary,52,Elementary School District,Active,2200 Freshwater Road,Eureka,95503-9562,CA,2200 Freshwater Road,Eureka,95503-9562,CA,(707) 442-5471,,(707) 442-5471,Michael,Quinlan,40.756423,-124.03514,11/08/2019,Humboldt,12628360000000 - Garfield Elementary,cde_public_districts
1262885,12628850000000,Humboldt,Hydesville Elementary,52,Elementary School District,Active,3050 Johnson Road,Hydesville,95547-0551,CA,3050 Johnson Road,Hydesville,95547-0551,CA,(707) 768-3610,,(707) 768-3612,Kevin,Trone,40.554654,-124.09172,08/16/2022,Humboldt,12628850000000 - Hydesville Elementary,cde_public_districts
1262893,12628930000000,Humboldt,Jacoby Creek Elementary,52,Elementary School District,Active,1617 Old Arcata Road,Bayside,95524-9301,CA,1617 Old Arcata Road,Bayside,95524-9301,CA,(707) 822-4896,,(707) 822-4898,Melanie,Nannizzi,40.849481,-124.06875,03/23/2022,Humboldt,12628930000000 - Jacoby Creek Elementary,cde_public_districts
1262901,12629010000000,Humboldt,Klamath-Trinity Joint Unified,54,Unified School District,Active,11800 Highway 96,Hoopa,95546-1308,CA,PO Box 1308,Hoopa,95546-1308,CA,(530) 625-5600,,(530) 625-5611,Jacqueline,McCullough,41.054384,-123.67864,09/19/2025,Humboldt,12629010000000 - Klamath-Trinity Joint Unified,cde_public_districts
1262919,12629190000000,Humboldt,Kneeland Elementary,52,Elementary School District,Active,9313 Kneeland Road,Kneeland,95549-9018,CA,9313 Kneeland Road,Kneeland,95549-9018,CA,(707) 442-5472,,(707) 422-7784,Greta,Turney,40.696731,-123.93631,12/18/2018,Humboldt,12629190000000 - Kneeland Elementary,cde_public_districts
1262927,12629270000000,Humboldt,Loleta Union Elementary,52,Elementary School District,Active,700 Loleta Drive,Loleta,95551-0547,CA,PO Box 547,Loleta,95551-0547,CA,(707) 733-5705,,(707) 733-5367,Linda,Row,40.642757,-124.21239,08/12/2022,Humboldt,12629270000000 - Loleta Union Elementary,cde_public_districts
1262935,12629350000000,Humboldt,Maple Creek Elementary,52,Elementary School District,Active,15933 Maple Creek Road,Korbel,95550-9602,CA,15933 Maple Creek Road,Korbel,95550-9602,CA,(707) 668-5596,,(707) 668-4132,Beth,Wylie,40.864169,-123.94171,09/23/2024,Humboldt,12629350000000 - Maple Creek Elementary,cde_public_districts
1262950,12629500000000,Humboldt,McKinleyville Union Elementary,52,Elementary School District,Active,2275 Central Avenue,McKinleyville,95519-3611,CA,2275 Central Avenue,McKinleyville,95519-3611,CA,(707) 839-1549,,(707) 839-1540,Julie,Giannini-Previde,40.946729,-124.10090,08/08/2023,Humboldt,12629500000000 - McKinleyville Union Elementary,cde_public_districts
1262968,12629680000000,Humboldt,Orick Elementary,52,Elementary School District,Active,120918 Highway 101,Orick,95555-0128,CA,PO Box 128,Orick,95555-0128,CA,(707) 488-2821,,(707) 488-2831,Justin,Wallace,41.287146,-124.05912,09/23/2024,Humboldt,12629680000000 - Orick Elementary,cde_public_districts
1262976,12629760000000,Humboldt,Pacific Union Elementary,52,Elementary School District,Active,3001 Janes Road,Arcata,95521-4701,CA,3001 Janes Road,Arcata,95521-4701,CA,(707) 822-4619,,(707) 822-0129,Rene,McBride,40.894916,-124.09384,08/08/2023,Humboldt,12629760000000 - Pacific Union Elementary,cde_public_districts
1262984,12629840000000,Humboldt,Peninsula Union,52,Elementary School District,Active,909 Vance Avenue,Samoa,95564-0175,CA,PO Box 175,Samoa,95564-0175,CA,(707) 443-2731,,(707) 443-3685,Raven,Coit,40.822000,-124.18260,03/09/2023,Humboldt,12629840000000 - Peninsula Union,cde_public_districts
1263008,12630080000000,Humboldt,Rio Dell Elementary,52,Elementary School District,Active,95 Center Street,Rio Dell,95562-1323,CA,95 Center Street,Rio Dell,95562-1323,CA,(707) 764-5694,,(707) 764-2656,Angela,Johnson,40.502024,-124.10458,10/15/2019,Humboldt,12630080000000 - Rio Dell Elementary,cde_public_districts
1263024,12630240000000,Humboldt,Scotia Union Elementary,52,Elementary School District,Active,417 Church Street,Scotia,95565-0217,CA,PO Box 217,Scotia,95565-0217,CA,(707) 764-2212,,(707) 764-5111,Amy,Gossien,40.483439,-124.10149,03/23/2022,Humboldt,12630240000000 - Scotia Union Elementary,cde_public_districts
1263032,12630320000000,Humboldt,South Bay Union Elementary,52,Elementary School District,Active,6077 Loma Avenue,Eureka,95503-6869,CA,6077 Loma Avenue,Eureka,95503-6869,CA,(707) 476-8549,,,Teri,Waterhouse,40.731068,-124.21317,06/29/2022,Humboldt,12630320000000 - South Bay Union Elementary,cde_public_districts
1263040,12630400000000,Humboldt,Southern Humboldt Joint Unified,54,Unified School District,Active,110 School Road,Miranda,95553,CA,PO Box 650,Miranda,95553-0650,CA,(707) 943-1789,,(707) 943-1921,Sarah,Purl,40.236100,-123.82300,07/10/2025,Humboldt,12630400000000 - Southern Humboldt Joint Unified,cde_public_districts
1263057,12630570000000,Humboldt,Trinidad Union Elementary,52,Elementary School District,Active,300 Trinity Street,Trinidad,95570-3030,CA,PO Box 3030,Trinidad,95570-3030,CA,(707) 677-3631,,(707) 677-0954,Alyse,Nichols,41.060570,-124.14378,08/10/2020,Humboldt,12630570000000 - Trinidad Union Elementary,cde_public_districts
1274393,12743930000000,Humboldt,Humboldt County ROP,98,Regional Occupation Center/Program (ROC/P),Active,901 Myrtle Avenue,Eureka,95501,CA,901 Myrtle Avenue,Eureka,95501,CA,(707) 445-7018,,,Garry,Eagles,40.800627,-124.14983,11/18/2015,Humboldt,12743930000000 - Humboldt County ROP,cde_public_districts
1275374,12753740000000,Humboldt,Ferndale Unified,54,Unified School District,Active,164 Shaw Avenue,Ferndale,95536-9416,CA,164 Shaw Avenue,Ferndale,95536-9416,CA,(707) 786-5300,,(707) 786-4284,Danielle,Carmesin,40.577279,-124.26704,10/04/2023,Humboldt,12753740000000 - Ferndale Unified,cde_public_districts
1275382,12753820000000,Humboldt,Mattole Unified,54,Unified School District,Active,29289 Chambers Road,Petrolia,95558-0211,CA,PO Box 211,Petrolia,95558-0211,CA,(707) 629-3311,,(707) 629-3575,Karen,Ashmore,40.321600,-124.28481,03/23/2022,Humboldt,12753820000000 - Mattole Unified,cde_public_districts
1275515,12755150000000,Humboldt,Eureka City Schools,54,Unified School District,Active,2100 J Street,Eureka,95501-3055,CA,2100 J Street,Eureka,95501-3055,CA,(707) 441-2400,,(707) 441-3326,Gary,Storts,40.788638,-124.15892,12/18/2023,Humboldt,12755150000000 - Eureka City Schools,cde_public_districts
1276802,12768020000000,Humboldt,Fortuna Elementary,52,Elementary School District,Active,534 12th Street,Fortuna,95540-2328,CA,534 12th Street,Fortuna,95540-2328,CA,(707) 725-2293,,(707) 725-2228,Amy,Betts,40.596702,-124.15471,07/20/2024,Humboldt,12768020000000 - Fortuna Elementary,cde_public_districts
1310132,13101320000000,Imperial,Imperial County Office of Education,00,County Office of Education (COE),Active,1398 Sperber Road,El Centro,92243-9621,CA,1398 Sperber Road,El Centro,92243-9621,CA,(760) 312-6164,,(760) 312-6613,Jonathan,Finnell,32.746360,-115.56438,03/23/2022,Imperial,13101320000000 - Imperial County Office of Education,cde_public_districts
1363073,13630730000000,Imperial,Brawley Elementary,52,Elementary School District,Active,261 D Street,Brawley,92227-1912,CA,261 D Street,Brawley,92227-1912,CA,(760) 344-2330,,(760) 344-8928,Luis,Panduro,32.980940,-115.53805,07/30/2025,Imperial,13630730000000 - Brawley Elementary,cde_public_districts
1363081,13630810000000,Imperial,Brawley Union High,56,High School District,Active,480 North Imperial Avenue,Brawley,92227-1625,CA,480 North Imperial Avenue,Brawley,92227-1625,CA,(760) 312-5819,,(760) 344-9520,Simon,Canalez,32.982858,-115.53491,03/23/2022,Imperial,13630810000000 - Brawley Union High,cde_public_districts
1363099,13630990000000,Imperial,Calexico Unified,54,Unified School District,Active,901 Andrade Avenue,Calexico,92231-3015,CA,901 Andrade Avenue,Calexico,92231-3015,CA,(760) 768-3888,,(760) 768-3856,Arturo,Jimenez,32.675999,-115.48258,06/30/2022,Imperial,13630990000000 - Calexico Unified,cde_public_districts
1363107,13631070000000,Imperial,Calipatria Unified,54,Unified School District,Active,501 West Main Street,Calipatria,92233-9787,CA,501 West Main Street,Calipatria,92233-9787,CA,(760) 348-2151,,(760) 344-8926,Angelita,Ortiz,33.125699,-115.52311,03/23/2022,Imperial,13631070000000 - Calipatria Unified,cde_public_districts
1363115,13631150000000,Imperial,Central Union High,56,High School District,Active,351 Ross Avenue,El Centro,92243-3110,CA,351 Ross Avenue,El Centro,92243-3110,CA,(760) 336-4500,,(760) 352-9420,David,Farkas,32.780956,-115.55085,07/18/2022,Imperial,13631150000000 - Central Union High,cde_public_districts
1363123,13631230000000,Imperial,El Centro Elementary,52,Elementary School District,Active,1256 Broadway,El Centro,92243-2317,CA,1256 Broadway,El Centro,92243-2317,CA,(760) 352-5712,8515,(760) 312-9522,Ruben,Castro,32.793899,-115.56625,07/11/2024,Imperial,13631230000000 - El Centro Elementary,cde_public_districts
1363131,13631310000000,Imperial,Heber Elementary,52,Elementary School District,Active,1052 Heber Avenue,Heber,92249-9759,CA,1052 Heber Avenue,Heber,92249-9759,CA,(760) 337-6530,2500,(760) 353-3421,Juan,Cruz,32.727064,-115.52997,03/29/2023,Imperial,13631310000000 - Heber Elementary,cde_public_districts
1363149,13631490000000,Imperial,Holtville Unified,54,Unified School District,Active,621 East Sixth Street,Holtville,92250-1450,CA,621 East Sixth Street,Holtville,92250-1450,CA,(760) 356-2974,,(760) 356-4936,Celso,Ruiz,32.812965,-115.37364,03/23/2022,Imperial,13631490000000 - Holtville Unified,cde_public_districts
1363164,13631640000000,Imperial,Imperial Unified,54,Unified School District,Active,219 North E Street,Imperial,92251,CA,219 North E Street,Imperial,92251,CA,(760) 355-3200,,(760) 355-4511,Bryan,Thomason,32.849116,-115.57493,03/23/2022,Imperial,13631640000000 - Imperial Unified,cde_public_districts
1363172,13631720000000,Imperial,Magnolia Union Elementary,52,Elementary School District,Active,4502 Casey Road,Brawley,92227-9561,CA,4502 Casey Road,Brawley,92227-9561,CA,(760) 344-2494,,(760) 344-8584,Matthew,Shirley,32.981890,-115.42344,07/11/2023,Imperial,13631720000000 - Magnolia Union Elementary,cde_public_districts
1363180,13631800000000,Imperial,McCabe Union Elementary,52,Elementary School District,Active,701 West McCabe Road,El Centro,92243-9507,CA,701 West McCabe Road,El Centro,92243-9507,CA,(760) 335-5200,,(760) 352-4398,Mary,Monson,32.752404,-115.59028,06/28/2023,Imperial,13631800000000 - McCabe Union Elementary,cde_public_districts
1363198,13631980000000,Imperial,Meadows Union,52,Elementary School District,Active,2059 Bowker Road,El Centro,92243-9724,CA,2059 Bowker Road,El Centro,92243-9724,CA,(760) 352-7512,,(760) 312-5201,Keila,Rodriguez,32.797142,-115.47389,12/21/2023,Imperial,13631980000000 - Meadows Union,cde_public_districts
1363206,13632060000000,Imperial,Mulberry Elementary,52,Elementary School District,Active,1391 East Rutherford Road,Brawley,92227-9578,CA,1391 East Rutherford Road,Brawley,92227-9578,CA,(760) 344-8600,,(760) 351-1769,Chelsey,Galindo,33.044466,-115.42420,08/22/2024,Imperial,13632060000000 - Mulberry Elementary,cde_public_districts
1363214,13632140000000,Imperial,San Pasqual Valley Unified,54,Unified School District,Active,676 Base Line Road,Winterhaven,92283-9801,CA,676 Base Line Road,Winterhaven,92283-9801,CA,(760) 572-0222,,(760) 572-0711,Richard,Cordero,32.751944,-114.59884,07/01/2025,Imperial,13632140000000 - San Pasqual Valley Unified,cde_public_districts
1363222,13632220000000,Imperial,Seeley Union Elementary,52,Elementary School District,Active,1812 West Rio Vista Street,Seeley,92273-0868,CA,PO Box 868,Seeley,92273-0868,CA,(760) 352-3571,,(760) 352-1629,Andrea,Ellis,32.794526,-115.69164,03/23/2022,Imperial,13632220000000 - Seeley Union Elementary,cde_public_districts
1363230,13632300000000,Imperial,Westmorland Union Elementary,52,Elementary School District,Active,200 South C Street,Westmorland,92281-0088,CA,PO Box 88,Westmorland,92281-0088,CA,(760) 344-4364,,(760) 344-7294,Rauna,Fox,33.036217,-115.61865,07/16/2025,Imperial,13632300000000 - Westmorland Union Elementary,cde_public_districts
1374401,13744010000000,Imperial,Imperial Valley ROP,98,Regional Occupation Center/Program (ROC/P),Active,687 State Street,El Centro,92243,CA,687 State Street,El Centro,92243,CA,(760) 482-2600,,,Edwin,Obergfell,32.791505,-115.55896,04/08/2016,Imperial,13744010000000 - Imperial Valley ROP,cde_public_districts
1410140,14101400000000,Inyo,Inyo County Office of Education,00,County Office of Education (COE),Active,166 Grandview Drive,Bishop,93514-2984,CA,166 Grandview Drive,Bishop,93514-2984,CA,(760) 873-3262,2102,(760) 873-3324,Barry,Simpson,37.360198,-118.43433,10/13/2025,Inyo,14101400000000 - Inyo County Office of Education,cde_public_districts
1463248,14632480000000,Inyo,Big Pine Unified,54,Unified School District,Active,500 South Main Street,Big Pine,93513-0908,CA,PO Box 908,Big Pine,93513,CA,(760) 938-2222,2422,(760) 938-2310,Ed,Dardenne-Ankringa,37.161788,-118.28898,03/23/2022,Inyo,14632480000000 - Big Pine Unified,cde_public_districts
1463271,14632710000000,Inyo,Death Valley Unified,54,Unified School District,Active,Old State Highway 127,Shoshone,92384-0217,CA,PO Box 217,Shoshone,92384-0217,CA,(760) 852-4303,,(760) 852-4395,Jim,Copeland,35.976161,-116.27100,03/23/2022,Inyo,14632710000000 - Death Valley Unified,cde_public_districts
1463289,14632890000000,Inyo,Lone Pine Unified,54,Unified School District,Active,301 South Hay Street,Lone Pine,93545-0159,CA,PO Box 159,Lone Pine,93545-0159,CA,(760) 876-5579,,(760) 876-5438,Edward,Campbell,36.603300,-118.06014,04/01/2025,Inyo,14632890000000 - Lone Pine Unified,cde_public_districts
1463297,14632970000000,Inyo,Owens Valley Unified,54,Unified School District,Active,202 South Clay Street,Independence,93526-0605,CA,PO Drawer E,Independence,93526-0605,CA,(760) 878-2405,,(760) 878-2626,Rosanne,Lampariello,36.802526,-118.19667,03/23/2022,Inyo,14632970000000 - Owens Valley Unified,cde_public_districts
1463305,14633050000000,Inyo,Round Valley Joint Elementary,52,Elementary School District,Active,300 North Round Valley Road,Bishop,93514-9632,CA,300 North Round Valley Road,Bishop,93514-9632,CA,(760) 387-2525,2321,(760) 387-2330,Danielle,Torrance,37.403941,-118.58513,11/14/2025,Inyo,14633050000000 - Round Valley Joint Elementary,cde_public_districts
1476687,14766870000000,Inyo,Bishop Unified,54,Unified School District,Active,656 West Pine Street,Bishop,93514-2609,CA,656 West Pine Street,Bishop,93514-2609,CA,(760) 872-3680,,(760) 872-6016,Katie,Kolker,37.363583,-118.40070,07/23/2020,Inyo,14766870000000 - Bishop Unified,cde_public_districts
1510157,15101570000000,Kern,Kern County Office of Education,00,County Office of Education (COE),Active,"1300 17th Street, City Centre",Bakersfield,93301-4533,CA,"1300 17th Street, City Centre",Bakersfield,93301-4533,CA,(661) 636-4000,,(661) 636-4130,John,Mendiburu,35.374390,-119.01650,07/03/2023,Kern,15101570000000 - Kern County Office of Education,cde_public_districts
1563313,15633130000000,Kern,Arvin Union,52,Elementary School District,Active,737 Bear Mountain Boulevard,Arvin,93203-1413,CA,737 Bear Mountain Boulevard,Arvin,93203-1413,CA,(661) 854-6500,,(661) 854-2362,Georgia,Rhett,35.209002,-118.83207,03/23/2022,Kern,15633130000000 - Arvin Union,cde_public_districts
1563321,15633210000000,Kern,Bakersfield City,52,Elementary School District,Active,1300 Baker Street,Bakersfield,93305-4326,CA,1300 Baker Street,Bakersfield,93305-4326,CA,(661) 631-4600,,(661) 324-3190,Karling,Aguilera-Fort,35.382075,-118.99110,07/08/2025,Kern,15633210000000 - Bakersfield City,cde_public_districts
1563339,15633390000000,Kern,Beardsley Elementary,52,Elementary School District,Active,1911 Mineral Ct,Bakersfield,93308-6812,CA,1911 Mineral Ct,Bakersfield,93308-6812,CA,(661) 393-8550,,(661) 393-5965,Paul,Miller,35.430749,-119.06251,10/29/2025,Kern,15633390000000 - Beardsley Elementary,cde_public_districts
1563354,15633540000000,Kern,Blake Elementary,52,Elementary School District,Active,19165 Main Street,Woody,93287-0040,CA,19165 Main Street,Woody,93287-0040,CA,(661) 536-8559,,,Mary,Westendorf,35.703746,-118.83715,08/29/2025,Kern,15633540000000 - Blake Elementary,cde_public_districts
1563362,15633620000000,Kern,Panama-Buena Vista Union,52,Elementary School District,Active,4200 Ashe Road,Bakersfield,93313-2029,CA,4200 Ashe Road,Bakersfield,93313-2029,CA,(661) 831-8331,6104,(661) 398-2141,Katie,Russell,35.317348,-119.07439,03/23/2022,Kern,15633620000000 - Panama-Buena Vista Union,cde_public_districts
1563370,15633700000000,Kern,Buttonwillow Union Elementary,52,Elementary School District,Active,42600 Highway 58,Buttonwillow,93206-9700,CA,42600 Highway 58,Buttonwillow,93206-9700,CA,(661) 764-5166,,(661) 764-5165,Hiedi,Witcher,35.399237,-119.47642,07/11/2023,Kern,15633700000000 - Buttonwillow Union Elementary,cde_public_districts
1563388,15633880000000,Kern,Caliente Union Elementary,52,Elementary School District,Active,12400 Caliente Creek Road,Caliente,93518-2851,CA,12400 Caliente Creek Road,Caliente,93518-2851,CA,(661) 867-2301,,,Robin,Shive,35.347237,-118.38561,10/23/2024,Kern,15633880000000 - Caliente Union Elementary,cde_public_districts
1563404,15634040000000,Kern,Delano Union Elementary,52,Elementary School District,Active,1405 12th Avenue,Delano,93215-2416,CA,1405 12th Avenue,Delano,93215-2416,CA,(661) 721-5000,00102,(661) 725-7278,Rosalina,Rivera,35.772834,-119.23932,03/23/2022,Kern,15634040000000 - Delano Union Elementary,cde_public_districts
1563412,15634120000000,Kern,Delano Joint Union High,56,High School District,Active,1720 Norwalk Street,Delano,93215-1456,CA,1720 Norwalk Street,Delano,93215-1456,CA,(661) 725-4000,,(661) 721-9390,Kenneth,Moore,35.778186,-119.24090,08/26/2025,Kern,15634120000000 - Delano Joint Union High,cde_public_districts
1563420,15634200000000,Kern,Di Giorgio Elementary,52,Elementary School District,Active,19405 Buena Vista Boulevard,Arvin,93203-9709,CA,19405 Buena Vista Boulevard,Arvin,93203-9709,CA,(661) 854-2604,111,(661) 854-8746,Jennifer,Allen,35.238386,-118.78619,03/23/2022,Kern,15634200000000 - Di Giorgio Elementary,cde_public_districts
1563438,15634380000000,Kern,Edison Elementary,52,Elementary School District,Active,11518 School Street,Bakersfield,93307-9148,CA,PO Box 368,Edison,93220-0368,CA,(661) 363-5394,,(661) 363-4631,Jairo,Arellano,35.347249,-118.87532,11/14/2023,Kern,15634380000000 - Edison Elementary,cde_public_districts
1563446,15634460000000,Kern,Elk Hills Elementary,52,Elementary School District,Active,501 Kern Street,Tupman,93276-0129,CA,PO Box 129,Tupman,93276-0129,CA,(661) 765-7431,,(661) 765-4583,Tiffany,Touchstone,35.298000,-119.35460,11/30/2021,Kern,15634460000000 - Elk Hills Elementary,cde_public_districts
1563461,15634610000000,Kern,Fairfax Elementary,52,Elementary School District,Active,1500 South Fairfax Road,Bakersfield,93307-3151,CA,1500 South Fairfax Road,Bakersfield,93307-3151,CA,(661) 366-7221,,(661) 366-1901,Lora,Brown,35.341509,-118.93202,07/27/2022,Kern,15634610000000 - Fairfax Elementary,cde_public_districts
1563479,15634790000000,Kern,Fruitvale Elementary,52,Elementary School District,Active,7311 Rosedale Highway,Bakersfield,93308-5738,CA,7311 Rosedale Highway,Bakersfield,93308-5738,CA,(661) 589-3830,1206,(661) 589-3674,Leslie,Garrison,35.383301,-119.08360,05/02/2025,Kern,15634790000000 - Fruitvale Elementary,cde_public_districts
1563487,15634870000000,Kern,General Shafter Elementary,52,Elementary School District,Active,1825 Shafter Road,Bakersfield,93313-9766,CA,1825 Shafter Road,Bakersfield,93313-9766,CA,(661) 837-1931,,(661) 837-8261,Chris,Salyards,35.223148,-119.02417,03/23/2022,Kern,15634870000000 - General Shafter Elementary,cde_public_districts
1563503,15635030000000,Kern,Greenfield Union,52,Elementary School District,Active,1624 Fairview Road,Bakersfield,93307-5512,CA,1624 Fairview Road,Bakersfield,93307-5512,CA,(661) 837-6000,,(661) 831-2983,Ramon,Hendrix,35.303181,-119.02043,03/23/2022,Kern,15635030000000 - Greenfield Union,cde_public_districts
1563529,15635290000000,Kern,Kern High,56,High School District,Active,5801 Sundale Avenue,Bakersfield,93309-2924,CA,5801 Sundale Avenue,Bakersfield,93309-2924,CA,(661) 827-3100,,(661) 827-3301,Michael,Zulfa,35.343886,-119.06554,02/05/2024,Kern,15635290000000 - Kern High,cde_public_districts
1563545,15635450000000,Kern,Kernville Union Elementary,52,Elementary School District,Active,3240 Erskine Creek Road,Lake Isabella,93240-3077,CA,3240 Erskine Creek Road,Lake Isabella,93240-3077,CA,(760) 379-3651,,(760) 379-3812,Steve,Martinez,35.612022,-118.46743,03/23/2022,Kern,15635450000000 - Kernville Union Elementary,cde_public_districts
1563552,15635520000000,Kern,Lakeside Union,52,Elementary School District,Active,14535 Old River Road,Bakersfield,93311-9756,CA,14535 Old River Road,Bakersfield,93311-9756,CA,(661) 836-6658,,(661) 836-8059,Ty,Bryson,35.222505,-119.11005,03/23/2022,Kern,15635520000000 - Lakeside Union,cde_public_districts
1563560,15635600000000,Kern,Lamont Elementary,52,Elementary School District,Active,7915 Burgundy Avenue,Lamont,93241-1350,CA,7915 Burgundy Avenue,Lamont,93241-1350,CA,(661) 845-0751,,(661) 219-7667,Brandy,Charles,35.263202,-118.91639,11/06/2025,Kern,15635600000000 - Lamont Elementary,cde_public_districts
1563578,15635780000000,Kern,Richland Union Elementary,52,Elementary School District,Active,300 North Valley,Shafter,93263-1967,CA,331 North Shafter Avenue,Shafter,93263-1967,CA,(661) 746-8600,,(661) 746-8614,Annette,Blacklock,35.504630,-119.28270,07/03/2025,Kern,15635780000000 - Richland Union Elementary,cde_public_districts
1563586,15635860000000,Kern,Linns Valley-Poso Flat Union,52,Elementary School District,Active,158 White River Road,Glennville,93226-0399,CA,PO Box 399,Glennville,93226-0399,CA,(661) 536-8811,,(661) 536-8878,Tammy,Pritchard,35.730014,-118.70482,10/26/2020,Kern,15635860000000 - Linns Valley-Poso Flat Union,cde_public_districts
1563594,15635940000000,Kern,Lost Hills Union Elementary,52,Elementary School District,Active,20951 Pavilion Way,Lost Hills,93249-0158,CA,PO Box 158,Lost Hills,93249-0158,CA,(661) 797-2941,,(661) 797-2580,Harrison,Favereaux,35.615205,-119.70291,01/03/2018,Kern,15635940000000 - Lost Hills Union Elementary,cde_public_districts
1563610,15636100000000,Kern,Maple Elementary,52,Elementary School District,Active,29161 Fresno Avenue,Shafter,93263-9719,CA,29161 Fresno Avenue,Shafter,93263-9719,CA,(661) 746-4439,,(661) 746-4765,Bryan,Easter,35.514491,-119.33639,12/21/2023,Kern,15636100000000 - Maple Elementary,cde_public_districts
1563628,15636280000000,Kern,Maricopa Unified,54,Unified School District,Active,955 Stanislaus Street,Maricopa,93252-9779,CA,955 Stanislaus Street,Maricopa,93252-9779,CA,(661) 769-8231,,(661) 769-8231,Brandie,Brown,35.055057,-119.40274,10/03/2025,Kern,15636280000000 - Maricopa Unified,cde_public_districts
1563651,15636510000000,Kern,McKittrick Elementary,52,Elementary School District,Active,23250 Second Street,McKittrick,93251-0277,CA,PO Box 277,McKittrick,93251-0277,CA,(661) 762-7303,,(661) 762-7283,Dawn,Bourelle,35.302600,-119.62380,07/14/2023,Kern,15636510000000 - McKittrick Elementary,cde_public_districts
1563669,15636690000000,Kern,Midway Elementary,52,Elementary School District,Active,259 F Street,Fellows,93224-0039,CA,PO Box 39,Fellows,93224-0039,CA,(661) 768-4344,,,Al,Quezada,35.173347,-119.54388,02/09/2017,Kern,15636690000000 - Midway Elementary,cde_public_districts
1563677,15636770000000,Kern,Mojave Unified,54,Unified School District,Active,3200 Pat Avenue,Mojave,93501-1143,CA,3200 Pat Avenue,Mojave,93501-1143,CA,(661) 824-4001,,(661) 824-2686,Katherine,Aguirre,35.049274,-118.18899,10/22/2024,Kern,15636770000000 - Mojave Unified,cde_public_districts
1563685,15636850000000,Kern,Muroc Joint Unified,54,Unified School District,Active,17100 Foothill Avenue,North Edwards,93523-3533,CA,17100 Foothill Avenue,North Edwards,93523-3533,CA,(760) 769-4821,,(760) 769-4241,Kevin,Cordes,35.015686,-117.82924,03/23/2022,Kern,15636850000000 - Muroc Joint Unified,cde_public_districts
1563693,15636930000000,Kern,Norris Elementary,52,Elementary School District,Active,6940 Calloway Drive,Bakersfield,93312-9005,CA,6940 Calloway Drive,Bakersfield,93312-9005,CA,(661) 387-7000,,(661) 399-9750,Cy,Silver,35.423422,-119.10988,02/22/2021,Kern,15636930000000 - Norris Elementary,cde_public_districts
1563719,15637190000000,Kern,Pond Union Elementary,52,Elementary School District,Active,29585 Pond Road,Wasco,93280-0927,CA,29585 Pond Road,Wasco,93280-0927,CA,(661) 792-2545,,(661) 792-5099,Alex,Lopez,35.717699,-119.32080,03/23/2022,Kern,15637190000000 - Pond Union Elementary,cde_public_districts
1563750,15637500000000,Kern,Rosedale Union Elementary,52,Elementary School District,Active,2553 Old Farm Road,Bakersfield,93312-3531,CA,2553 Old Farm Road,Bakersfield,93312-3531,CA,(661) 588-6000,,(661) 588-6009,Sue,Lemon,35.383015,-119.13680,12/05/2019,Kern,15637500000000 - Rosedale Union Elementary,cde_public_districts
1563768,15637680000000,Kern,Semitropic Elementary,52,Elementary School District,Active,25300 Highway 46,Wasco,93280-9540,CA,25300 Highway 46,Wasco,93280-9540,CA,(661) 758-6412,101,(661) 758-4134,Wendy,Castañeda Leal,35.601072,-119.51070,04/03/2025,Kern,15637680000000 - Semitropic Elementary,cde_public_districts
1563776,15637760000000,Kern,Southern Kern Unified,54,Unified School District,Active,2601 Rosamond Boulevard,Rosamond,93560-0640,CA,2601 Rosamond Boulevard,Rosamond,93560-0640,CA,(661) 256-5000,,(661) 256-1247,Barbara,Gaines,34.864184,-118.17812,01/21/2021,Kern,15637760000000 - Southern Kern Unified,cde_public_districts
1563784,15637840000000,Kern,South Fork Union,52,Elementary School District,Active,5225 Kelso Valley Road,Weldon,93283-9564,CA,5225 Kelso Valley Road,Weldon,93283-9564,CA,(760) 378-4000,150,(760) 378-3046,Richard,Rhodes,35.550143,-118.20939,08/21/2023,Kern,15637840000000 - South Fork Union,cde_public_districts
1563792,15637920000000,Kern,Standard Elementary,52,Elementary School District,Active,1200 North Chester Avenue,Bakersfield,93308-3521,CA,1200 North Chester Avenue,Bakersfield,93308-3521,CA,(661) 392-2110,,(661) 392-0681,Julie,Boesch,35.417295,-119.02102,08/19/2025,Kern,15637920000000 - Standard Elementary,cde_public_districts
1563800,15638000000000,Kern,Taft City,52,Elementary School District,Active,820 Sixth Street,Taft,93268-2306,CA,820 Sixth Street,Taft,93268-2306,CA,(661) 763-1521,,(661) 763-1495,Melissa,Taylor,35.147319,-119.45764,08/18/2025,Kern,15638000000000 - Taft City,cde_public_districts
1563818,15638180000000,Kern,Taft Union High,56,High School District,Active,701 Wildcat Way,Taft,93268-2319,CA,701 Wildcat Way,Taft,93268-2319,CA,(661) 763-2300,,(661) 763-1445,Jason,Hodgson,35.146325,-119.46063,03/23/2022,Kern,15638180000000 - Taft Union High,cde_public_districts
1563826,15638260000000,Kern,Tehachapi Unified,54,Unified School District,Active,300 South Robinson Street,Tehachapi,93561-1519,CA,300 South Robinson Street,Tehachapi,93561-1519,CA,(661) 822-2100,,(661) 822-2159,Brian,Bell,35.129348,-118.44556,08/18/2025,Kern,15638260000000 - Tehachapi Unified,cde_public_districts
1563834,15638340000000,Kern,Vineland Elementary,52,Elementary School District,Active,14713 Weedpatch Highway,Bakersfield,93307-9653,CA,14713 Weedpatch Highway,Bakersfield,93307-9653,CA,(661) 845-3713,,(661) 845-8449,Roberto,Euresti,35.221443,-118.91443,03/09/2026,Kern,15638340000000 - Vineland Elementary,cde_public_districts
1563842,15638420000000,Kern,Wasco Union Elementary,52,Elementary School District,Active,1102 Fifth Street,Wasco,93280-1825,CA,1102 Fifth Street,Wasco,93280-1825,CA,(661) 758-7100,,(661) 758-7110,J. Bradley,Maberry,35.597187,-119.33844,08/15/2024,Kern,15638420000000 - Wasco Union Elementary,cde_public_districts
1563859,15638590000000,Kern,Wasco Union High,56,High School District,Active,2100 Seventh Street,Wasco,93280-1563,CA,2100 Seventh Street,Wasco,93280-1563,CA,(661) 758-8447,,(661) 758-4946,Kevin,Tallon,35.594325,-119.34936,07/18/2023,Kern,15638590000000 - Wasco Union High,cde_public_districts
1573544,15735440000000,Kern,Rio Bravo-Greeley Union Elementary,52,Elementary School District,Active,6521 Enos Lane,Bakersfield,93314-8721,CA,6521 Enos Lane,Bakersfield,93314-8721,CA,(661) 589-2696,,(661) 589-2218,Jennifer,Hedge,35.416466,-119.25204,02/09/2017,Kern,15735440000000 - Rio Bravo-Greeley Union Elementary,cde_public_districts
1573742,15737420000000,Kern,Sierra Sands Unified,54,Unified School District,Active,113 West Felspar Avenue,Ridgecrest,93555-3520,CA,113 West Felspar Avenue,Ridgecrest,93555-3520,CA,(760) 499-1600,,(760) 375-4562,April,Moore,35.633167,-117.67158,06/29/2023,Kern,15737420000000 - Sierra Sands Unified,cde_public_districts
1573908,15739080000000,Kern,McFarland Unified,54,Unified School District,Active,601 Second Street,McFarland,93250-1121,CA,601 Second Street,McFarland,93250-1121,CA,(661) 792-3081,,(661) 792-2447,Samuel,Resendez,35.680926,-119.22926,08/20/2019,Kern,15739080000000 - McFarland Unified,cde_public_districts
1574765,15747650000000,Kern,Kern County ROP,98,Regional Occupation Center/Program (ROC/P),Active,5801 Sundale Avenue,Bakersfield,93309,CA,5801 Sundale Avenue,Bakersfield,93309,CA,(661) 824-9313,,,Tom,Anspach,35.343886,-119.06554,04/24/2015,Kern,15747650000000 - Kern County ROP,cde_public_districts
1574807,15748070000000,Kern,Kern High ROC,98,Regional Occupation Center/Program (ROC/P),Active,501 South Mount Vernon Avenue,Bakersfield,93307,CA,501 South Mount Vernon Avenue,Bakersfield,93307,CA,(661) 831-3327,,,Bryon,Schaefer,35.350753,-118.96739,09/04/2018,Kern,15748070000000 - Kern High ROC,cde_public_districts
1575168,15751680000000,Kern,El Tejon Unified,54,Unified School District,Active,4337 Lebec Road,Lebec,93243-0876,CA,PO Box 876,Lebec,93243-0876,CA,(661) 248-6247,,(661) 248-6714,Sara,Haflich,34.870475,-118.88409,03/23/2022,Kern,15751680000000 - El Tejon Unified,cde_public_districts
1610165,16101650000000,Kings,Kings County Office of Education,00,County Office of Education (COE),Active,1144 West Lacey Boulevard,Hanford,93230-5956,CA,1144 West Lacey Boulevard,Hanford,93230-5956,CA,(559) 584-1441,,(559) 589-7000,Todd,Barlow,36.328144,-119.66158,08/24/2020,Kings,16101650000000 - Kings County Office of Education,cde_public_districts
1663875,16638750000000,Kings,Armona Union Elementary,52,Elementary School District,Active,11115 C Street,Armona,93202-0368,CA,PO Box 368,Armona,93202-0368,CA,(559) 583-5000,5001,(559) 583-5004,Xavier,Pina,36.312085,-119.70703,05/16/2023,Kings,16638750000000 - Armona Union Elementary,cde_public_districts
1663883,16638830000000,Kings,Central Union Elementary,52,Elementary School District,Active,15783 18th Avenue,Lemoore,93245-9742,CA,15783 18th Avenue,Lemoore,93245-9742,CA,(559) 925-2619,,,Thomas,Addington,36.244090,-119.78079,03/23/2022,Kings,16638830000000 - Central Union Elementary,cde_public_districts
1663891,16638910000000,Kings,Corcoran Joint Unified,54,Unified School District,Active,1520 Patterson Avenue,Corcoran,93212-1722,CA,1520 Patterson Avenue,Corcoran,93212-1722,CA,(559) 992-8888,1224,(559) 992-1248,Andre,Pecina,36.101672,-119.56685,02/05/2024,Kings,16638910000000 - Corcoran Joint Unified,cde_public_districts
1663917,16639170000000,Kings,Hanford Elementary,52,Elementary School District,Active,714 North White Street,Hanford,93230-4029,CA,PO Box 1067,Hanford,93232,CA,(559) 585-3600,,(559) 585-2381,Joy,Gabler,36.332631,-119.63954,03/23/2022,Kings,16639170000000 - Hanford Elementary,cde_public_districts
1663925,16639250000000,Kings,Hanford Joint Union High,56,High School District,Active,300 W 6th Street,Hanford,93230-3067,CA,300 W 6th Street,Hanford,93230-3067,CA,(559) 583-5901,,,Victor,Rosa,36.325198,-119.64974,11/18/2025,Kings,16639250000000 - Hanford Joint Union High,cde_public_districts
1663933,16639330000000,Kings,Island Union Elementary,52,Elementary School District,Active,7799 21st Avenue,Lemoore,93245-9673,CA,7799 21st Avenue,Lemoore,93245-9673,CA,(559) 924-6424,,(559) 924-0247,Loretta,Black,36.353577,-119.83402,07/17/2023,Kings,16639330000000 - Island Union Elementary,cde_public_districts
1663941,16639410000000,Kings,Kings River-Hardwick Union Elementary,52,Elementary School District,Active,10300 Excelsior Avenue,Hanford,93230-9108,CA,10300 Excelsior Avenue,Hanford,93230-9108,CA,(559) 584-4475,,(559) 585-1422,Cathlene,Anderson,36.401207,-119.64165,02/09/2017,Kings,16639410000000 - Kings River-Hardwick Union Elementary,cde_public_districts
1663958,16639580000000,Kings,Kit Carson Union Elementary,52,Elementary School District,Active,9895 Seventh Avenue,Hanford,93230-8802,CA,9895 Seventh Avenue,Hanford,93230-8802,CA,(559) 582-2843,,(559) 582-2843,Michelle,King,36.329728,-119.58306,07/06/2023,Kings,16639580000000 - Kit Carson Union Elementary,cde_public_districts
1663966,16639660000000,Kings,Lakeside Union Elementary,52,Elementary School District,Active,9100 Jersey Avenue,Hanford,93230-9560,CA,9100 Jersey Avenue,Hanford,93230-9560,CA,(559) 582-2868,101,(559) 582-7638,Cynthia,Marshall,36.240517,-119.62562,03/23/2022,Kings,16639660000000 - Lakeside Union Elementary,cde_public_districts
1663974,16639740000000,Kings,Lemoore Union Elementary,52,Elementary School District,Active,1200 West Cinnamon Drive,Lemoore,93245-9420,CA,100 Vine Street,Lemoore,93245-3418,CA,(559) 924-6800,,(559) 924-6809,Cheryl,Hunt,36.305667,-119.80469,08/20/2019,Kings,16639740000000 - Lemoore Union Elementary,cde_public_districts
1663982,16639820000000,Kings,Lemoore Union High,56,High School District,Active,5 Powell Avenue,Lemoore,93245-2856,CA,5 Powell Avenue,Lemoore,93245-2856,CA,(559) 924-6610,,(559) 924-9212,Miguel,Guerrero,36.298494,-119.77964,07/07/2022,Kings,16639820000000 - Lemoore Union High,cde_public_districts
1663990,16639900000000,Kings,Pioneer Union Elementary,52,Elementary School District,Active,1888 North Mustang Drive,Hanford,93230-9811,CA,1888 North Mustang Drive,Hanford,93230-9811,CA,(559) 585-2400,,(559) 584-5048,John,Raven,36.346200,-119.70890,07/29/2025,Kings,16639900000000 - Pioneer Union Elementary,cde_public_districts
1673932,16739320000000,Kings,Reef-Sunset Unified,54,Unified School District,Active,1225 S. 7th Avenue,Avenal,93204-1425,CA,1225 S. 7th Avenue,Avenal,93204-1425,CA,(559) 386-9083,,(559) 386-5303,Juan,Ruiz,35.993962,-120.12834,08/27/2024,Kings,16739320000000 - Reef-Sunset Unified,cde_public_districts
1674708,16747080000000,Kings,Kings County ROP,98,Regional Occupation Center/Program (ROC/P),Active,876 East D St,Lemoore,93245,CA,Kings County Government Center,Hanford,93230,CA,(559) 589-7038,,,Lisa,Rodriguez,36.299613,-119.76812,08/28/2020,Kings,16747080000000 - Kings County ROP,cde_public_districts
1710173,17101730000000,Lake,Lake County Office of Education,00,County Office of Education (COE),Active,1152 South Main Street,Lakeport,95453-5517,CA,1152 South Main Street,Lakeport,95453-5517,CA,(707) 262-4100,,(707) 263-0197,Brock,Falkenberg,39.028703,-122.91600,06/01/2023,Lake,17101730000000 - Lake County Office of Education,cde_public_districts
1764014,17640140000000,Lake,Kelseyville Unified,54,Unified School District,Active,4410 Konocti Road,Kelseyville,95451-8953,CA,4410 Konocti Road,Kelseyville,95451-8953,CA,(707) 279-1511,,(707) 279-9221,H. Nicki,Thomas,38.975602,-122.83117,07/05/2023,Lake,17640140000000 - Kelseyville Unified,cde_public_districts
1764022,17640220000000,Lake,Konocti Unified,54,Unified School District,Active,9430 B Lake Street,Lower Lake,95457,CA,9430 B Lake Street,Lower Lake,95457,CA,(707) 994-6475,,(707) 994-0210,Becky,Salato,38.914767,-122.60778,06/17/2020,Lake,17640220000000 - Konocti Unified,cde_public_districts
1764030,17640300000000,Lake,Lakeport Unified,54,Unified School District,Active,2508 Howard Avenue,Lakeport,95453-6908,CA,2508 Howard Avenue,Lakeport,95453-6908,CA,(707) 262-3000,,(707) 263-7332,Matthew,Bullard,39.061607,-122.91813,07/24/2023,Lake,17640300000000 - Lakeport Unified,cde_public_districts
1764048,17640480000000,Lake,Lucerne Elementary,52,Elementary School District,Active,3351 Country Club Drive,Lucerne,95458-1083,CA,PO Box 1083,Lucerne,95458-1083,CA,(707) 274-5578,,(707) 274-9865,Megan,Grant,39.083455,-122.78908,06/28/2022,Lake,17640480000000 - Lucerne Elementary,cde_public_districts
1764055,17640550000000,Lake,Middletown Unified,54,Unified School District,Active,20932 Big Canyon Road,Middletown,95461-0338,CA,20932 Big Canyon Road,Middletown,95461-0338,CA,(707) 987-4100,,,Jeff,Crane,38.761807,-122.61719,05/21/2024,Lake,17640550000000 - Middletown Unified,cde_public_districts
1776976,17769760000000,Lake,Upper Lake Unified,54,Unified School District,Active,675 Clover Valley Road,Upper Lake,95485-9220,CA,675 Clover Valley Road,Upper Lake,95485-9220,CA,(707) 275-2655,,(707) 275-9750,Giovanni,Annous,39.165836,-122.90155,03/23/2022,Lake,17769760000000 - Upper Lake Unified,cde_public_districts
1810181,18101810000000,Lassen,Lassen County Office of Education,00,County Office of Education (COE),Active,"472-013 Johnstonville Road, North",Susanville,96130-8752,CA,"472-013 Johnstonville Road, North",Susanville,96130-8752,CA,(530) 257-2196,,(530) 257-2518,Patricia,Gunderson,40.375147,-120.57998,12/05/2018,Lassen,18101810000000 - Lassen County Office of Education,cde_public_districts
1864089,18640890000000,Lassen,Big Valley Joint Unified,54,Unified School District,Active,400 Bridge Street,Bieber,96009-0157,CA,PO Box 157,Bieber,96009-0157,CA,(530) 294-5266,,(530) 294-5396,Teresa,Ragsdale,41.121382,-121.14009,08/06/2024,Lassen,18640890000000 - Big Valley Joint Unified,cde_public_districts
1864105,18641050000000,Lassen,Janesville Union Elementary,52,Elementary School District,Active,464-555 Main Street,Janesville,96114-0280,CA,PO Box 280,Janesville,96114-0280,CA,(530) 253-3660,,(530) 253-3891,Jamie,Lewis,40.293541,-120.51693,08/05/2024,Lassen,18641050000000 - Janesville Union Elementary,cde_public_districts
1864113,18641130000000,Lassen,Johnstonville Elementary,52,Elementary School District,Active,704-795 Bangham Lane,Susanville,96130-7716,CA,704-795 Bangham Lane,Susanville,96130-7716,CA,(530) 257-2471,572471,(530) 251-5557,Scott,Smith,40.383387,-120.58934,03/23/2022,Lassen,18641130000000 - Johnstonville Elementary,cde_public_districts
1864139,18641390000000,Lassen,Lassen Union High,56,High School District,Active,1000 Main Street,Susanville,96130-4409,CA,1000 Main Street,Susanville,96130-4409,CA,(530) 257-5134,,(530) 251-0473,Mark,Brewer,40.417396,-120.65775,06/30/2025,Lassen,18641390000000 - Lassen Union High,cde_public_districts
1864162,18641620000000,Lassen,Ravendale-Termo Elementary,52,Elementary School District,Active,709-855 Termo-Grasshopper Road,Termo,96132-7126,CA,109 South Gilman Street,Susanville,96130,CA,(530) 257-8200,,(530) 257-8246,Jason,Waddell,40.375800,-120.58080,03/23/2022,Lassen,18641620000000 - Ravendale-Termo Elementary,cde_public_districts
1864170,18641700000000,Lassen,Richmond Elementary,52,Elementary School District,Active,"700-585 Richmond Road, East",Susanville,96130-5026,CA,"700-585 Richmond Road, East",Susanville,96130-5026,CA,(530) 257-2338,,(530) 257-6398,Brian,Boyer,40.373159,-120.63506,07/05/2023,Lassen,18641700000000 - Richmond Elementary,cde_public_districts
1864188,18641880000000,Lassen,Shaffer Union Elementary,52,Elementary School District,Active,722-055 Highway 395 North,Litchfield,96117-0320,CA,PO Box 320,Litchfield,96117-0320,CA,(530) 254-6577,,(530) 254-6126,Joshua,Blackburn,40.382192,-120.38246,03/23/2022,Lassen,18641880000000 - Shaffer Union Elementary,cde_public_districts
1864196,18641960000000,Lassen,Susanville Elementary,52,Elementary School District,Active,109 South Gilman Street,Susanville,96130-4150,CA,109 South Gilman Street,Susanville,96130-4150,CA,(530) 257-8200,,(530) 257-8246,Jason,Waddell,40.413690,-120.64565,12/05/2018,Lassen,18641960000000 - Susanville Elementary,cde_public_districts
1864204,18642040000000,Lassen,Westwood Unified,54,Unified School District,Active,Fourth and Greenwood Streets,Westwood,96137-1225,CA,PO Box 1225,Westwood,96137-1225,CA,(530) 256-2311,,(530) 256-3539,Paula,Silva,40.304139,-121.00812,07/26/2023,Lassen,18642040000000 - Westwood Unified,cde_public_districts
1874740,18747400000000,Lassen,Lassen ROP,98,Regional Occupation Center/Program (ROC/P),Active,"472-013 Johnstonville Rd, North",Susanville,96130,CA,"472-013 Johnstonville Rd, North",Susanville,96130,CA,(530) 252-1673,,,Bill,McCabe,40.375147,-120.57998,11/19/2015,Lassen,18747400000000 - Lassen ROP,cde_public_districts
1875036,18750360000000,Lassen,Fort Sage Unified,54,Unified School District,Active,100 DS Hall Street,Herlong,96113-0035,CA,PO Box 35,Herlong,96113-0035,CA,(530) 827-2129,,(530) 827-3239,Derek,Cooper,40.141907,-120.13399,07/11/2024,Lassen,18750360000000 - Fort Sage Unified,cde_public_districts
1910199,19101990000000,Los Angeles,Los Angeles County Office of Education,00,County Office of Education (COE),Active,9300 Imperial Highway,Downey,90242-2890,CA,9300 Imperial Highway,Downey,90242-2890,CA,(562) 922-6111,,(562) 922-6768,Debra,Duardo,33.916978,-118.12860,04/02/2019,Los Angeles,19101990000000 - Los Angeles County Office of Education,cde_public_districts
1964212,19642120000000,Los Angeles,ABC Unified,54,Unified School District,Active,16700 Norwalk Boulevard,Cerritos,90703-1838,CA,16700 Norwalk Boulevard,Cerritos,90703-1838,CA,(562) 926-5566,21161,(562) 404-1092,Gina,Zietlow,33.878988,-118.07255,05/15/2023,Los Angeles,19642120000000 - ABC Unified,cde_public_districts
1964246,19642460000000,Los Angeles,Antelope Valley Union High,56,High School District,Active,176 Holston Drive,Lancaster,93535-4531,CA,176 Holston Drive,Lancaster,93535-4531,CA,(661) 948-7655,,(661) 942-1077,Greg,Nehen,34.664389,-118.12863,03/23/2022,Los Angeles,19642460000000 - Antelope Valley Union High,cde_public_districts
1964261,19642610000000,Los Angeles,Arcadia Unified,54,Unified School District,Active,150 South 3rd Avenue,Arcadia,91006-3703,CA,150 South 3rd Avenue,Arcadia,91006-3703,CA,(626) 821-8300,,,David,Vannasdall,34.138486,-118.02343,03/23/2022,Los Angeles,19642610000000 - Arcadia Unified,cde_public_districts
1964279,19642790000000,Los Angeles,Azusa Unified,54,Unified School District,Active,546 South Citrus Avenue,Azusa,91702-0500,CA,PO Box 500,Azusa,91702-0500,CA,(626) 967-6211,,(626) 858-6123,Arturo,Ortega,34.117617,-117.89018,11/02/2020,Los Angeles,19642790000000 - Azusa Unified,cde_public_districts
1964287,19642870000000,Los Angeles,Baldwin Park Unified,54,Unified School District,Active,3699 North Holly Avenue,Baldwin Park,91706-5397,CA,3699 North Holly Avenue,Baldwin Park,91706-5397,CA,(626) 962-3311,,(626) 856-4901,Froilan,Mendoza,34.082071,-117.96078,03/23/2022,Los Angeles,19642870000000 - Baldwin Park Unified,cde_public_districts
1964295,19642950000000,Los Angeles,Bassett Unified,54,Unified School District,Active,904 Willow Avenue,La Puente,91746-1615,CA,904 Willow Avenue,La Puente,91746-1615,CA,(626) 931-3000,,,Julie,Harrison,34.052583,-117.97187,01/21/2026,Los Angeles,19642950000000 - Bassett Unified,cde_public_districts
1964303,19643030000000,Los Angeles,Bellflower Unified,54,Unified School District,Active,16703 South Clark Avenue,Bellflower,90706-5203,CA,16703 South Clark Avenue,Bellflower,90706-5203,CA,(562) 866-9011,,(562) 866-7713,Erin,Simon,33.882908,-118.13400,07/15/2025,Los Angeles,19643030000000 - Bellflower Unified,cde_public_districts
1964311,19643110000000,Los Angeles,Beverly Hills Unified,54,Unified School District,Active,624 N. Rexford Drive,Beverly Hills,90210-3312,CA,624 N. Rexford Drive,Beverly Hills,90210-3312,CA,(310) 551-5100,2210,(310) 286-2138,Alex,Cherniss,34.079286,-118.40417,04/29/2025,Los Angeles,19643110000000 - Beverly Hills Unified,cde_public_districts
1964329,19643290000000,Los Angeles,Bonita Unified,54,Unified School District,Active,115 West Allen Avenue,San Dimas,91773-1437,CA,115 West Allen Avenue,San Dimas,91773-1437,CA,(909) 971-8200,,(909) 971-8329,Matthew,Wien,34.117591,-117.80744,02/02/2023,Los Angeles,19643290000000 - Bonita Unified,cde_public_districts
1964337,19643370000000,Los Angeles,Burbank Unified,54,Unified School District,Active,1900 West Olive Avenue,Burbank,91506-2438,CA,1900 West Olive Avenue,Burbank,91506-2438,CA,(818) 729-4400,,(818) 729-4483,Oscar,Macias,34.165490,-118.32494,06/12/2025,Los Angeles,19643370000000 - Burbank Unified,cde_public_districts
1964345,19643450000000,Los Angeles,Castaic Union,52,Elementary School District,Active,28131 Livingston Avenue,Valencia,91355-4114,CA,28131 Livingston Avenue,Valencia,91355-4114,CA,(661) 257-4500,1500,(661) 257-5737,Bob,Brauneisen,34.440801,-118.62665,05/04/2023,Los Angeles,19643450000000 - Castaic Union,cde_public_districts
1964352,19643520000000,Los Angeles,Centinela Valley Union High,56,High School District,Active,14901 South Inglewood Avenue,Lawndale,90260-1251,CA,14901 South Inglewood Avenue,Lawndale,90260-1251,CA,(310) 263-3200,,,Stephen,Nellman,33.896373,-118.36136,03/23/2022,Los Angeles,19643520000000 - Centinela Valley Union High,cde_public_districts
1964378,19643780000000,Los Angeles,Charter Oak Unified,54,Unified School District,Active,20240 East Cienega Avenue,Covina,91724-1227,CA,20240 East Cienega Avenue,Covina,91724-1227,CA,(626) 966-8331,,(626) 967-9580,Danny,Kim,34.103001,-117.85742,03/11/2025,Los Angeles,19643780000000 - Charter Oak Unified,cde_public_districts
1964394,19643940000000,Los Angeles,Claremont Unified,54,Unified School District,Active,170 West San Jose Avenue,Claremont,91711-5285,CA,170 West San Jose Avenue,Claremont,91711-5285,CA,(909) 398-0609,,(909) 398-0690,Jim,Elsasser,34.083106,-117.71658,06/29/2022,Los Angeles,19643940000000 - Claremont Unified,cde_public_districts
1964436,19644360000000,Los Angeles,Covina-Valley Unified,54,Unified School District,Active,519 East Badillo St,Covina,91723-0269,CA,519 East Badillo St,Covina,91723-0269,CA,(626) 974-7000,,(626) 974-7032,Jonathan,Blackmore,34.086570,-117.88052,11/18/2025,Los Angeles,19644360000000 - Covina-Valley Unified,cde_public_districts
1964444,19644440000000,Los Angeles,Culver City Unified,54,Unified School District,Active,4034 Irving Place,Culver City,90232-2810,CA,4034 Irving Place,Culver City,90232-2810,CA,(310) 842-4220,,(310) 842-4205,Alfonso,Jimenez,34.022089,-118.39332,07/14/2025,Los Angeles,19644440000000 - Culver City Unified,cde_public_districts
1964451,19644510000000,Los Angeles,Downey Unified,54,Unified School District,Active,11627 Brookshire Avenue,Downey,90241-7017,CA,PO Box 7017,Downey,90241-7017,CA,(562) 469-6500,,(562) 469-6515,Roger,Brossmer,33.934338,-118.13271,09/02/2025,Los Angeles,19644510000000 - Downey Unified,cde_public_districts
1964469,19644690000000,Los Angeles,Duarte Unified,54,Unified School District,Active,1620 Huntington Drive,Duarte,91010-2534,CA,1620 Huntington Drive,Duarte,91010-2534,CA,(626) 599-5000,,(626) 599-5069,Jessica,Medrano,34.139542,-117.97063,12/11/2025,Los Angeles,19644690000000 - Duarte Unified,cde_public_districts
1964477,19644770000000,Los Angeles,Eastside Union Elementary,52,Elementary School District,Active,44938 North 30th Street East,Lancaster,93535-2815,CA,44938 North 30th Street East,Lancaster,93535-2815,CA,(661) 952-1200,8213,(661) 952-1232,Jezelle,Fullwood,34.702010,-118.07704,08/20/2024,Los Angeles,19644770000000 - Eastside Union Elementary,cde_public_districts
1964485,19644850000000,Los Angeles,East Whittier City Elementary,52,Elementary School District,Active,14535 Whittier Boulevard,Whittier,90605-2130,CA,14535 Whittier Boulevard,Whittier,90605-2130,CA,(562) 907-5900,,(562) 945-6062,Marc,Patterson,33.953456,-118.01485,03/14/2023,Los Angeles,19644850000000 - East Whittier City Elementary,cde_public_districts
1964501,19645010000000,Los Angeles,El Monte City,52,Elementary School District,Active,3540 North Lexington Avenue,El Monte,91731-2684,CA,3540 North Lexington Avenue,El Monte,91731-2684,CA,(626) 453-3700,,(626) 442-1063,Maribel,Garcia,34.073014,-118.03939,03/23/2022,Los Angeles,19645010000000 - El Monte City,cde_public_districts
1964519,19645190000000,Los Angeles,El Monte Union High,56,High School District,Active,3537 Johnson Avenue,El Monte,91731-3290,CA,3537 Johnson Avenue,El Monte,91731-3290,CA,(626) 444-9005,,,Edward,Zuniga,34.071779,-118.03059,03/23/2022,Los Angeles,19645190000000 - El Monte Union High,cde_public_districts
1964527,19645270000000,Los Angeles,El Rancho Unified,54,Unified School District,Active,9333 Loch Lomond Drive,Pico Rivera,90660-2913,CA,9333 Loch Lomond Drive,Pico Rivera,90660-2913,CA,(562) 801-7300,,,Dora,Soto-Delgado,33.994855,-118.08155,10/29/2025,Los Angeles,19645270000000 - El Rancho Unified,cde_public_districts
1964535,19645350000000,Los Angeles,El Segundo Unified,54,Unified School District,Active,641 Sheldon Street,El Segundo,90245-3036,CA,641 Sheldon Street,El Segundo,90245-3036,CA,(310) 615-2650,1405,,Jason,Johnson,33.924218,-118.41129,08/29/2024,Los Angeles,19645350000000 - El Segundo Unified,cde_public_districts
1964550,19645500000000,Los Angeles,Garvey Elementary,52,Elementary School District,Active,2730 North Del Mar Avenue,Rosemead,91770-3026,CA,2730 North Del Mar Avenue,Rosemead,91770-3026,CA,(626) 307-3444,,(626) 307-1964,Anita,Chu,34.061644,-118.09939,08/04/2020,Los Angeles,19645500000000 - Garvey Elementary,cde_public_districts
1964568,19645680000000,Los Angeles,Glendale Unified,54,Unified School District,Active,223 North Jackson Street,Glendale,91206-4334,CA,223 North Jackson Street,Glendale,91206-4334,CA,(818) 241-3111,,(818) 548-9041,Darneika,Watson,34.148574,-118.25017,12/01/2023,Los Angeles,19645680000000 - Glendale Unified,cde_public_districts
1964576,19645760000000,Los Angeles,Glendora Unified,54,Unified School District,Active,500 North Loraine Avenue,Glendora,91741-2964,CA,500 North Loraine Avenue,Glendora,91741-2964,CA,(626) 963-1611,1101,,Dominic,DiGrazia,34.143357,-117.84619,08/10/2022,Los Angeles,19645760000000 - Glendora Unified,cde_public_districts
1964584,19645840000000,Los Angeles,Gorman Joint,52,Elementary School District,Active,49847 Gorman School Road,Gorman,93243-0104,CA,PO Box 104,Gorman,93243-0104,CA,(661) 248-6441,,(661) 248-0604,Lori Michi,Knight,34.792938,-118.85330,10/23/2025,Los Angeles,19645840000000 - Gorman Joint,cde_public_districts
1964592,19645920000000,Los Angeles,Hawthorne,52,Elementary School District,Active,14120 South Hawthorne Boulevard,Hawthorne,90250-7006,CA,14120 South Hawthorne Boulevard,Hawthorne,90250-7006,CA,(310) 676-2276,,(310) 675-2308,Brian,Markarian,33.903681,-118.35238,06/30/2022,Los Angeles,19645920000000 - Hawthorne,cde_public_districts
1964600,19646000000000,Los Angeles,Hermosa Beach City Elementary,52,Elementary School District,Active,1645 Valley Drive,Hermosa Beach,90254-2921,CA,1645 Valley Drive,Hermosa Beach,90254-2921,CA,(424) 333-9975,1218,(310) 376-4974,Susan,Wildes,33.866167,-118.39771,07/18/2024,Los Angeles,19646000000000 - Hermosa Beach City Elementary,cde_public_districts
1964626,19646260000000,Los Angeles,Hughes-Elizabeth Lakes Union Elementary,52,Elementary School District,Active,16633 Elizabeth Lake Road,Lake Hughes,93532-0600,CA,PO Box 530,Lake Hughes,93532-0530,CA,(661) 724-1231,302,(661) 724-1485,Corrie,Sands,34.671016,-118.42327,12/02/2025,Los Angeles,19646260000000 - Hughes-Elizabeth Lakes Union Elementary,cde_public_districts
